{
"type": "FeatureCollection",
"crs": { "type": "name", "properties": { "name": "urn:ogc:def:crs:OGC:1.3:CRS84" } },
                                                                                
"features": [
{ "type": "Feature", "properties": { "CODE": "22.23", "NAME": "Gatwick Airport", "MAPTEXT": "Gatwick Airport", "ANG": 0.000000, "L20": "Y", "GRAPHIC_ID": "RLP0000842", "MI_STYLE": null, "MI_PRINX": 1.000000 }, "geometry": { "type": "Point", "coordinates": [ -0.160952109539897, 51.15695658281269 ] } },
{ "type": "Feature", "properties": { "CODE": "22.23", "NAME": "Horley", "MAPTEXT": "Horley", "ANG": 0.000000, "L20": "Y", "GRAPHIC_ID": "RLP0000949", "MI_STYLE": null, "MI_PRINX": 2.000000 }, "geometry": { "type": "Point", "coordinates": [ -0.161015956219401, 51.168329808520674 ] } },
{ "type": "Feature", "properties": { "CODE": "22.23", "NAME": "Holmwood", "MAPTEXT": "Holmwood", "ANG": 0.000000, "L20": "Y", "GRAPHIC_ID": "RLP0000841", "MI_STYLE": null, "MI_PRINX": 3.000000 }, "geometry": { "type": "Point", "coordinates": [ -0.320879800416714, 51.181359662338807 ] } },
{ "type": "Feature", "properties": { "CODE": "22.23", "NAME": "Farncombe", "MAPTEXT": "Farncombe", "ANG": 0.000000, "L20": "Y", "GRAPHIC_ID": "RLP0000836", "MI_STYLE": null, "MI_PRINX": 4.000000 }, "geometry": { "type": "Point", "coordinates": [ -0.604740507634629, 51.196926024506304 ] } },
{ "type": "Feature", "properties": { "CODE": "22.23", "NAME": "Salfords", "MAPTEXT": "Salfords", "ANG": 0.000000, "L20": "Y", "GRAPHIC_ID": "RLP0000840", "MI_STYLE": null, "MI_PRINX": 5.000000 }, "geometry": { "type": "Point", "coordinates": [ -0.162091341392685, 51.201714985970497 ] } },
{ "type": "Feature", "properties": { "CODE": "22.23", "NAME": "Shalford", "MAPTEXT": "Shalford", "ANG": 0.000000, "L20": "Y", "GRAPHIC_ID": "RLP0000837", "MI_STYLE": null, "MI_PRINX": 6.000000 }, "geometry": { "type": "Point", "coordinates": [ -0.566784359622344, 51.214419583703076 ] } },
{ "type": "Feature", "properties": { "CODE": "22.23", "NAME": "Chilworth", "MAPTEXT": "Chilworth", "ANG": 0.000000, "L20": "Y", "GRAPHIC_ID": "RLP0000947", "MI_STYLE": null, "MI_PRINX": 7.000000 }, "geometry": { "type": "Point", "coordinates": [ -0.524616617635582, 51.215105981695082 ] } },
{ "type": "Feature", "properties": { "CODE": "22.23", "NAME": "Gomshall", "MAPTEXT": "Gomshall", "ANG": 0.000000, "L20": "Y", "GRAPHIC_ID": "RLP0000948", "MI_STYLE": null, "MI_PRINX": 8.000000 }, "geometry": { "type": "Point", "coordinates": [ -0.441746470576624, 51.21940126396786 ] } },
{ "type": "Feature", "properties": { "CODE": "22.23", "NAME": "Nutfield", "MAPTEXT": "Nutfield", "ANG": 0.000000, "L20": "Y", "GRAPHIC_ID": "RLP0000537", "MI_STYLE": null, "MI_PRINX": 9.000000 }, "geometry": { "type": "Point", "coordinates": [ -0.132737722194837, 51.226781268937408 ] } },
{ "type": "Feature", "properties": { "CODE": "22.23", "NAME": "Earlswood", "MAPTEXT": "Earlswood", "ANG": 0.000000, "L20": "Y", "GRAPHIC_ID": "RLP0000839", "MI_STYLE": null, "MI_PRINX": 10.000000 }, "geometry": { "type": "Point", "coordinates": [ -0.17086643209533, 51.227539626374984 ] } },
{ "type": "Feature", "properties": { "CODE": "22.22s", "NAME": "Guildford", "MAPTEXT": "Guildford", "ANG": 0.000000, "L20": "Y", "GRAPHIC_ID": "RLP0001007", "MI_STYLE": null, "MI_PRINX": 11.000000 }, "geometry": { "type": "Point", "coordinates": [ -0.580861204865925, 51.23714006037487 ] } },
{ "type": "Feature", "properties": { "CODE": "22.23", "NAME": "Dorking West", "MAPTEXT": "Dorking West", "ANG": 0.000000, "L20": "Y", "GRAPHIC_ID": "RLP0000838", "MI_STYLE": null, "MI_PRINX": 12.000000 }, "geometry": { "type": "Point", "coordinates": [ -0.340045408211853, 51.236380027860307 ] } },
{ "type": "Feature", "properties": { "CODE": "22.23", "NAME": "London Road", "MAPTEXT": "London Road", "ANG": 0.000000, "L20": "Y", "GRAPHIC_ID": "RLP0000515", "MI_STYLE": null, "MI_PRINX": 13.000000 }, "geometry": { "type": "Point", "coordinates": [ -0.565338308712695, 51.24071391249808 ] } },
{ "type": "Feature", "properties": { "CODE": "22.23", "NAME": "Dorking Deepdene", "MAPTEXT": "Dorking Deepdene", "ANG": 0.000000, "L20": "Y", "GRAPHIC_ID": "RLP0000519", "MI_STYLE": null, "MI_PRINX": 14.000000 }, "geometry": { "type": "Point", "coordinates": [ -0.324084113471715, 51.238882501568561 ] } },
{ "type": "Feature", "properties": { "CODE": "22.23", "NAME": "Dorking", "MAPTEXT": "Dorking", "ANG": 0.000000, "L20": "Y", "GRAPHIC_ID": "RLP0000832", "MI_STYLE": null, "MI_PRINX": 15.000000 }, "geometry": { "type": "Point", "coordinates": [ -0.324102854219098, 51.241181633391378 ] } },
{ "type": "Feature", "properties": { "CODE": "22.23", "NAME": "Redhill", "MAPTEXT": "Redhill", "ANG": 0.000000, "L20": "Y", "GRAPHIC_ID": "RLP0000523", "MI_STYLE": null, "MI_PRINX": 16.000000 }, "geometry": { "type": "Point", "coordinates": [ -0.165521209837332, 51.240341291284928 ] } },
{ "type": "Feature", "properties": { "CODE": "22.23", "NAME": "Reigate", "MAPTEXT": "Reigate", "ANG": 0.000000, "L20": "Y", "GRAPHIC_ID": "RLP0000834", "MI_STYLE": null, "MI_PRINX": 17.000000 }, "geometry": { "type": "Point", "coordinates": [ -0.204593961179483, 51.241956014742826 ] } },
{ "type": "Feature", "properties": { "CODE": "22.23", "NAME": "Betchworth", "MAPTEXT": "Betchworth", "ANG": 0.000000, "L20": "Y", "GRAPHIC_ID": "RLP0000520", "MI_STYLE": null, "MI_PRINX": 18.000000 }, "geometry": { "type": "Point", "coordinates": [ -0.267565588647217, 51.247913405383279 ] } },
{ "type": "Feature", "properties": { "CODE": "22.23", "NAME": "Hurst Green", "MAPTEXT": "Hurst Green", "ANG": 0.000000, "L20": "Y", "GRAPHIC_ID": "RLP0000946", "MI_STYLE": null, "MI_PRINX": 19.000000 }, "geometry": { "type": "Point", "coordinates": [ 0.004005057196884, 51.244585425697004 ] } },
{ "type": "Feature", "properties": { "CODE": "22.23", "NAME": "Boxhill & Westhumble", "MAPTEXT": "Boxhill & Westhumble", "ANG": 0.000000, "L20": "Y", "GRAPHIC_ID": "RLP0000518", "MI_STYLE": null, "MI_PRINX": 20.000000 }, "geometry": { "type": "Point", "coordinates": [ -0.328804076064851, 51.253975695242701 ] } },
{ "type": "Feature", "properties": { "CODE": "22.23", "NAME": "Clandon", "MAPTEXT": "Clandon", "ANG": 0.000000, "L20": "Y", "GRAPHIC_ID": "RLP0000514", "MI_STYLE": null, "MI_PRINX": 21.000000 }, "geometry": { "type": "Point", "coordinates": [ -0.502853682692078, 51.264137236190095 ] } },
{ "type": "Feature", "properties": { "CODE": "22.23", "NAME": "Oxted", "MAPTEXT": "Oxted", "ANG": 0.000000, "L20": "Y", "GRAPHIC_ID": "RLP0000835", "MI_STYLE": null, "MI_PRINX": 22.000000 }, "geometry": { "type": "Point", "coordinates": [ -0.004980572793823, 51.258062977663705 ] } },
{ "type": "Feature", "properties": { "CODE": "22.23", "NAME": "Merstham", "MAPTEXT": "Merstham", "ANG": 0.000000, "L20": "Y", "GRAPHIC_ID": "RLP0000833", "MI_STYLE": null, "MI_PRINX": 23.000000 }, "geometry": { "type": "Point", "coordinates": [ -0.150181033405153, 51.264145423243662 ] } },
{ "type": "Feature", "properties": { "CODE": "22.23", "NAME": "Horsley", "MAPTEXT": "Horsley", "ANG": 0.000000, "L20": "Y", "GRAPHIC_ID": "RLP0000831", "MI_STYLE": null, "MI_PRINX": 24.000000 }, "geometry": { "type": "Point", "coordinates": [ -0.435761472425583, 51.279269523871818 ] } },
{ "type": "Feature", "properties": { "CODE": "22.23", "NAME": "Worplesdon", "MAPTEXT": "Worplesdon", "ANG": 0.000000, "L20": "Y", "GRAPHIC_ID": "RLP0000497", "MI_STYLE": null, "MI_PRINX": 25.000000 }, "geometry": { "type": "Point", "coordinates": [ -0.582444703660008, 51.288121365355174 ] } },
{ "type": "Feature", "properties": { "CODE": "22.23", "NAME": "Sevenoaks", "MAPTEXT": "Sevenoaks", "ANG": 0.000000, "L20": "Y", "GRAPHIC_ID": "RLP0000830", "MI_STYLE": null, "MI_PRINX": 26.000000 }, "geometry": { "type": "Point", "coordinates": [ 0.181635487493672, 51.276925151628703 ] } },
{ "type": "Feature", "properties": { "CODE": "22.23", "NAME": "Caterham", "MAPTEXT": "Caterham", "ANG": 0.000000, "L20": "Y", "GRAPHIC_ID": "RLP0000510", "MI_STYLE": null, "MI_PRINX": 27.000000 }, "geometry": { "type": "Point", "coordinates": [ -0.078716807906666, 51.282616807109321 ] } },
{ "type": "Feature", "properties": { "CODE": "22.23", "NAME": "Bookham", "MAPTEXT": "Bookham", "ANG": 0.000000, "L20": "Y", "GRAPHIC_ID": "RLP0000944", "MI_STYLE": null, "MI_PRINX": 28.000000 }, "geometry": { "type": "Point", "coordinates": [ -0.384072931829064, 51.288846708339555 ] } },
{ "type": "Feature", "properties": { "CODE": "22.23", "NAME": "Effingham Junction", "MAPTEXT": "Effingham Junction", "ANG": 0.000000, "L20": "Y", "GRAPHIC_ID": "RLP0000498", "MI_STYLE": null, "MI_PRINX": 29.000000 }, "geometry": { "type": "Point", "coordinates": [ -0.420083142576572, 51.291419040167085 ] } },
{ "type": "Feature", "properties": { "CODE": "22.23", "NAME": "Tadworth", "MAPTEXT": "Tadworth", "ANG": 0.000000, "L20": "Y", "GRAPHIC_ID": "RLP0000503", "MI_STYLE": null, "MI_PRINX": 30.000000 }, "geometry": { "type": "Point", "coordinates": [ -0.235933188939757, 51.291357985401717 ] } },
{ "type": "Feature", "properties": { "CODE": "22.23", "NAME": "Woldingham", "MAPTEXT": "Woldingham", "ANG": 0.000000, "L20": "Y", "GRAPHIC_ID": "RLP0000828", "MI_STYLE": null, "MI_PRINX": 31.000000 }, "geometry": { "type": "Point", "coordinates": [ -0.052022052120448, 51.289992490996298 ] } },
{ "type": "Feature", "properties": { "CODE": "22.23", "NAME": "Kingswood", "MAPTEXT": "Kingswood", "ANG": 0.000000, "L20": "Y", "GRAPHIC_ID": "RLP0000824", "MI_STYLE": null, "MI_PRINX": 32.000000 }, "geometry": { "type": "Point", "coordinates": [ -0.210534803319243, 51.294884268861871 ] } },
{ "type": "Feature", "properties": { "CODE": "22.23", "NAME": "Bat & Ball", "MAPTEXT": "Bat & Ball", "ANG": 0.000000, "L20": "Y", "GRAPHIC_ID": "RLP0000829", "MI_STYLE": null, "MI_PRINX": 33.000000 }, "geometry": { "type": "Point", "coordinates": [ 0.193799845071388, 51.289849408085935 ] } },
{ "type": "Feature", "properties": { "CODE": "22.23", "NAME": "Leatherhead", "MAPTEXT": "Leatherhead", "ANG": 0.000000, "L20": "Y", "GRAPHIC_ID": "RLP0000822", "MI_STYLE": null, "MI_PRINX": 34.000000 }, "geometry": { "type": "Point", "coordinates": [ -0.333204600065157, 51.299015434045891 ] } },
{ "type": "Feature", "properties": { "CODE": "22.23", "NAME": "Dunton Green", "MAPTEXT": "Dunton Green", "ANG": 0.000000, "L20": "Y", "GRAPHIC_ID": "RLP0000512", "MI_STYLE": null, "MI_PRINX": 35.000000 }, "geometry": { "type": "Point", "coordinates": [ 0.171174694471163, 51.296613122612072 ] } },
{ "type": "Feature", "properties": { "CODE": "22.23", "NAME": "Kemsing", "MAPTEXT": "Kemsing", "ANG": 0.000000, "L20": "Y", "GRAPHIC_ID": "RLP0000513", "MI_STYLE": null, "MI_PRINX": 36.000000 }, "geometry": { "type": "Point", "coordinates": [ 0.247365988335925, 51.297256831838787 ] } },
{ "type": "Feature", "properties": { "CODE": "22.23", "NAME": "Whyteleafe South", "MAPTEXT": "Whyteleafe South", "ANG": 0.000000, "L20": "Y", "GRAPHIC_ID": "RLP0000509", "MI_STYLE": null, "MI_PRINX": 37.000000 }, "geometry": { "type": "Point", "coordinates": [ -0.077153857334486, 51.303482016986102 ] } },
{ "type": "Feature", "properties": { "CODE": "22.23", "NAME": "Tattenham Corner", "MAPTEXT": "Tattenham Corner", "ANG": 0.000000, "L20": "Y", "GRAPHIC_ID": "RLP0000823", "MI_STYLE": null, "MI_PRINX": 38.000000 }, "geometry": { "type": "Point", "coordinates": [ -0.242413884637994, 51.309117613538987 ] } },
{ "type": "Feature", "properties": { "CODE": "22.23", "NAME": "Chipstead", "MAPTEXT": "Chipstead", "ANG": 0.000000, "L20": "Y", "GRAPHIC_ID": "RLP0000945", "MI_STYLE": null, "MI_PRINX": 39.000000 }, "geometry": { "type": "Point", "coordinates": [ -0.169709150037752, 51.309125580213767 ] } },
{ "type": "Feature", "properties": { "CODE": "22.23", "NAME": "Upper Warlingham", "MAPTEXT": "Upper Warlingham", "ANG": 0.000000, "L20": "Y", "GRAPHIC_ID": "RLP0000827", "MI_STYLE": null, "MI_PRINX": 40.000000 }, "geometry": { "type": "Point", "coordinates": [ -0.077855056778378, 51.308198688746373 ] } },
{ "type": "Feature", "properties": { "CODE": "22.23", "NAME": "Whyteleafe", "MAPTEXT": "Whyteleafe", "ANG": 0.000000, "L20": "Y", "GRAPHIC_ID": "RLP0000508", "MI_STYLE": null, "MI_PRINX": 41.000000 }, "geometry": { "type": "Point", "coordinates": [ -0.081010232403117, 51.310125903587846 ] } },
{ "type": "Feature", "properties": { "CODE": "22.23", "NAME": "Woking", "MAPTEXT": "Woking", "ANG": 0.000000, "L20": "Y", "GRAPHIC_ID": "RLP0000819", "MI_STYLE": null, "MI_PRINX": 42.000000 }, "geometry": { "type": "Point", "coordinates": [ -0.557270711632186, 51.31859107649047 ] } },
{ "type": "Feature", "properties": { "CODE": "22.23", "NAME": "Cobham & Stoke D'Abernon", "MAPTEXT": "Cobham & Stoke D'Abernon", "ANG": 0.000000, "L20": "Y", "GRAPHIC_ID": "RLP0000820", "MI_STYLE": null, "MI_PRINX": 43.000000 }, "geometry": { "type": "Point", "coordinates": [ -0.389360736686445, 51.318048043133388 ] } },
{ "type": "Feature", "properties": { "CODE": "22.23", "NAME": "Ashtead", "MAPTEXT": "Ashtead", "ANG": 0.000000, "L20": "Y", "GRAPHIC_ID": "RLP0000821", "MI_STYLE": null, "MI_PRINX": 44.000000 }, "geometry": { "type": "Point", "coordinates": [ -0.307746894119301, 51.317871623003676 ] } },
{ "type": "Feature", "properties": { "CODE": "22.23", "NAME": "Coulsdon South", "MAPTEXT": "Coulsdon South", "ANG": 0.000000, "L20": "Y", "GRAPHIC_ID": "RLP0000825", "MI_STYLE": null, "MI_PRINX": 45.000000 }, "geometry": { "type": "Point", "coordinates": [ -0.137950195277522, 51.315750953133801 ] } },
{ "type": "Feature", "properties": { "CODE": "22.23", "NAME": "Woodmansterne", "MAPTEXT": "Woodmansterne", "ANG": 0.000000, "L20": "Y", "GRAPHIC_ID": "RLP0000505", "MI_STYLE": null, "MI_PRINX": 46.000000 }, "geometry": { "type": "Point", "coordinates": [ -0.153974423586005, 51.319040196163812 ] } },
{ "type": "Feature", "properties": { "CODE": "22.23", "NAME": "Otford", "MAPTEXT": "Otford", "ANG": 0.000000, "L20": "Y", "GRAPHIC_ID": "RLP0000511", "MI_STYLE": null, "MI_PRINX": 47.000000 }, "geometry": { "type": "Point", "coordinates": [ 0.197001710317916, 51.313076899277007 ] } },
{ "type": "Feature", "properties": { "CODE": "22.23", "NAME": "Smitham", "MAPTEXT": "Smitham", "ANG": 0.000000, "L20": "Y", "GRAPHIC_ID": "RLP0000826", "MI_STYLE": null, "MI_PRINX": 48.000000 }, "geometry": { "type": "Point", "coordinates": [ -0.134074047740268, 51.322139009582905 ] } },
{ "type": "Feature", "properties": { "CODE": "22.23", "NAME": "Epsom Downs", "MAPTEXT": "Epsom Downs", "ANG": 0.000000, "L20": "Y", "GRAPHIC_ID": "RLP0000501", "MI_STYLE": null, "MI_PRINX": 49.000000 }, "geometry": { "type": "Point", "coordinates": [ -0.238743816512356, 51.324085466098694 ] } },
{ "type": "Feature", "properties": { "CODE": "22.23", "NAME": "Kenley", "MAPTEXT": "Kenley", "ANG": 0.000000, "L20": "Y", "GRAPHIC_ID": "RLP0000814", "MI_STYLE": null, "MI_PRINX": 50.000000 }, "geometry": { "type": "Point", "coordinates": [ -0.099511538099344, 51.324168437813192 ] } },
{ "type": "Feature", "properties": { "CODE": "22.23", "NAME": "Banstead", "MAPTEXT": "Banstead", "ANG": 0.000000, "L20": "Y", "GRAPHIC_ID": "RLP0000476", "MI_STYLE": null, "MI_PRINX": 51.000000 }, "geometry": { "type": "Point", "coordinates": [ -0.212090392188877, 51.328711205886201 ] } },
{ "type": "Feature", "properties": { "CODE": "22.23", "NAME": "Reedham", "MAPTEXT": "Reedham", "ANG": 0.000000, "L20": "Y", "GRAPHIC_ID": "RLP0000482", "MI_STYLE": null, "MI_PRINX": 52.000000 }, "geometry": { "type": "Point", "coordinates": [ -0.122001665011023, 51.330487992451026 ] } },
{ "type": "Feature", "properties": { "CODE": "22.23", "NAME": "Epsom", "MAPTEXT": "Epsom", "ANG": 0.000000, "L20": "Y", "GRAPHIC_ID": "RLP0000807", "MI_STYLE": null, "MI_PRINX": 53.000000 }, "geometry": { "type": "Point", "coordinates": [ -0.267616189491744, 51.333804897532197 ] } },
{ "type": "Feature", "properties": { "CODE": "22.23", "NAME": "Oxshott", "MAPTEXT": "Oxshott", "ANG": 0.000000, "L20": "Y", "GRAPHIC_ID": "RLP0000803", "MI_STYLE": null, "MI_PRINX": 54.000000 }, "geometry": { "type": "Point", "coordinates": [ -0.361132839323755, 51.335402439101983 ] } },
{ "type": "Feature", "properties": { "CODE": "22.23", "NAME": "Riddlesdown", "MAPTEXT": "Riddlesdown", "ANG": 0.000000, "L20": "Y", "GRAPHIC_ID": "RLP0000813", "MI_STYLE": null, "MI_PRINX": 55.000000 }, "geometry": { "type": "Point", "coordinates": [ -0.098122014959859, 51.331685272261254 ] } },
{ "type": "Feature", "properties": { "CODE": "22.23", "NAME": "West Byfleet", "MAPTEXT": "West Byfleet", "ANG": 0.000000, "L20": "Y", "GRAPHIC_ID": "RLP0000467", "MI_STYLE": null, "MI_PRINX": 56.000000 }, "geometry": { "type": "Point", "coordinates": [ -0.504231896485645, 51.338672363589744 ] } },
{ "type": "Feature", "properties": { "CODE": "22.23", "NAME": "Shoreham", "MAPTEXT": "Shoreham", "ANG": 0.000000, "L20": "Y", "GRAPHIC_ID": "RLP0000495", "MI_STYLE": null, "MI_PRINX": 57.000000 }, "geometry": { "type": "Point", "coordinates": [ 0.190093510524199, 51.33146281418761 ] } },
{ "type": "Feature", "properties": { "CODE": "22.23", "NAME": "Purley", "MAPTEXT": "Purley", "ANG": 0.000000, "L20": "Y", "GRAPHIC_ID": "RLP0000481", "MI_STYLE": null, "MI_PRINX": 58.000000 }, "geometry": { "type": "Point", "coordinates": [ -0.112338018343596, 51.336999593558637 ] } },
{ "type": "Feature", "properties": { "CODE": "22.23", "NAME": "Belmont", "MAPTEXT": "Belmont", "ANG": 0.000000, "L20": "Y", "GRAPHIC_ID": "RLP0000810", "MI_STYLE": null, "MI_PRINX": 59.000000 }, "geometry": { "type": "Point", "coordinates": [ -0.19772740505488, 51.343256336144528 ] } },
{ "type": "Feature", "properties": { "CODE": "22.23", "NAME": "Ewell East", "MAPTEXT": "Ewell East", "ANG": 0.000000, "L20": "Y", "GRAPHIC_ID": "RLP0000475", "MI_STYLE": null, "MI_PRINX": 60.000000 }, "geometry": { "type": "Point", "coordinates": [ -0.240334545884591, 51.344413726171943 ] } },
{ "type": "Feature", "properties": { "CODE": "22.23", "NAME": "Byfleet & New Haw", "MAPTEXT": "Byfleet & New Haw", "ANG": 0.000000, "L20": "Y", "GRAPHIC_ID": "RLP0000470", "MI_STYLE": null, "MI_PRINX": 61.000000 }, "geometry": { "type": "Point", "coordinates": [ -0.479938684841335, 51.348928981694556 ] } },
{ "type": "Feature", "properties": { "CODE": "22.23", "NAME": "Purley Oaks", "MAPTEXT": "Purley Oaks", "ANG": 0.000000, "L20": "Y", "GRAPHIC_ID": "RLP0000480", "MI_STYLE": null, "MI_PRINX": 62.000000 }, "geometry": { "type": "Point", "coordinates": [ -0.097225050285368, 51.346262463785784 ] } },
{ "type": "Feature", "properties": { "CODE": "22.23", "NAME": "Ewell West", "MAPTEXT": "Ewell West", "ANG": 0.000000, "L20": "Y", "GRAPHIC_ID": "RLP0000474", "MI_STYLE": null, "MI_PRINX": 63.000000 }, "geometry": { "type": "Point", "coordinates": [ -0.255651648856986, 51.349488908027148 ] } },
{ "type": "Feature", "properties": { "CODE": "22.23", "NAME": "Sanderstead", "MAPTEXT": "Sanderstead", "ANG": 0.000000, "L20": "Y", "GRAPHIC_ID": "RLP0000812", "MI_STYLE": null, "MI_PRINX": 64.000000 }, "geometry": { "type": "Point", "coordinates": [ -0.092169653984593, 51.347568138154664 ] } },
{ "type": "Feature", "properties": { "CODE": "22.23", "NAME": "Knockholt", "MAPTEXT": "Knockholt", "ANG": 0.000000, "L20": "Y", "GRAPHIC_ID": "RLP0000818", "MI_STYLE": null, "MI_PRINX": 65.000000 }, "geometry": { "type": "Point", "coordinates": [ 0.131937695328841, 51.345108002019778 ] } },
{ "type": "Feature", "properties": { "CODE": "22.23", "NAME": "Chessington South", "MAPTEXT": "Chessington South", "ANG": 0.000000, "L20": "Y", "GRAPHIC_ID": "RLP0000805", "MI_STYLE": null, "MI_PRINX": 66.000000 }, "geometry": { "type": "Point", "coordinates": [ -0.306527644608747, 51.35614447713111 ] } },
{ "type": "Feature", "properties": { "CODE": "22.23", "NAME": "Cheam", "MAPTEXT": "Cheam", "ANG": 0.000000, "L20": "Y", "GRAPHIC_ID": "RLP0000473", "MI_STYLE": null, "MI_PRINX": 67.000000 }, "geometry": { "type": "Point", "coordinates": [ -0.212916914291495, 51.355067124434584 ] } },
{ "type": "Feature", "properties": { "CODE": "22.23", "NAME": "Carshalton Beeches", "MAPTEXT": "Carshalton Beeches", "ANG": 0.000000, "L20": "Y", "GRAPHIC_ID": "RLP0000809", "MI_STYLE": null, "MI_PRINX": 68.000000 }, "geometry": { "type": "Point", "coordinates": [ -0.168490143933998, 51.356495318230571 ] } },
{ "type": "Feature", "properties": { "CODE": "22.23", "NAME": "Weybridge", "MAPTEXT": "Weybridge", "ANG": 0.000000, "L20": "Y", "GRAPHIC_ID": "RLP0000469", "MI_STYLE": null, "MI_PRINX": 69.000000 }, "geometry": { "type": "Point", "coordinates": [ -0.456186095474537, 51.360824675218652 ] } },
{ "type": "Feature", "properties": { "CODE": "22.23", "NAME": "Claygate", "MAPTEXT": "Claygate", "ANG": 0.000000, "L20": "Y", "GRAPHIC_ID": "RLP0000472", "MI_STYLE": null, "MI_PRINX": 70.000000 }, "geometry": { "type": "Point", "coordinates": [ -0.347006405666222, 51.360495074447179 ] } },
{ "type": "Feature", "properties": { "CODE": "22.23", "NAME": "Sutton", "MAPTEXT": "Sutton", "ANG": 0.000000, "L20": "Y", "GRAPHIC_ID": "RLP0000808", "MI_STYLE": null, "MI_PRINX": 71.000000 }, "geometry": { "type": "Point", "coordinates": [ -0.189210432146841, 51.359116932598432 ] } },
{ "type": "Feature", "properties": { "CODE": "22.23", "NAME": "Wallington", "MAPTEXT": "Wallington", "ANG": 0.000000, "L20": "Y", "GRAPHIC_ID": "RLP0000478", "MI_STYLE": null, "MI_PRINX": 72.000000 }, "geometry": { "type": "Point", "coordinates": [ -0.149264491547176, 51.359499088557705 ] } },
{ "type": "Feature", "properties": { "CODE": "22.23", "NAME": "Chelsfield", "MAPTEXT": "Chelsfield", "ANG": 0.000000, "L20": "Y", "GRAPHIC_ID": "RLP0000490", "MI_STYLE": null, "MI_PRINX": 73.000000 }, "geometry": { "type": "Point", "coordinates": [ 0.109619873591738, 51.355932892671731 ] } },
{ "type": "Feature", "properties": { "CODE": "22.23", "NAME": "Chessington North", "MAPTEXT": "Chessington North", "ANG": 0.000000, "L20": "Y", "GRAPHIC_ID": "RLP0000804", "MI_STYLE": null, "MI_PRINX": 74.000000 }, "geometry": { "type": "Point", "coordinates": [ -0.299174986627078, 51.363442011539718 ] } },
{ "type": "Feature", "properties": { "CODE": "22.23", "NAME": "Stoneleigh", "MAPTEXT": "Stoneleigh", "ANG": 0.000000, "L20": "Y", "GRAPHIC_ID": "RLP0000806", "MI_STYLE": null, "MI_PRINX": 75.000000 }, "geometry": { "type": "Point", "coordinates": [ -0.246646368564009, 51.363187968149454 ] } },
{ "type": "Feature", "properties": { "CODE": "22.23", "NAME": "South Croydon", "MAPTEXT": "South Croydon", "ANG": 0.000000, "L20": "Y", "GRAPHIC_ID": "RLP0000479", "MI_STYLE": null, "MI_PRINX": 76.000000 }, "geometry": { "type": "Point", "coordinates": [ -0.092018183124635, 51.362016619762748 ] } },
{ "type": "Feature", "properties": { "CODE": "22.23", "NAME": "West Sutton", "MAPTEXT": "West Sutton", "ANG": 0.000000, "L20": "Y", "GRAPHIC_ID": "RLP0000477", "MI_STYLE": null, "MI_PRINX": 77.000000 }, "geometry": { "type": "Point", "coordinates": [ -0.203336912037915, 51.365371276523199 ] } },
{ "type": "Feature", "properties": { "CODE": "22.23", "NAME": "Waddon", "MAPTEXT": "Waddon", "ANG": 0.000000, "L20": "Y", "GRAPHIC_ID": "RLP0000811", "MI_STYLE": null, "MI_PRINX": 78.000000 }, "geometry": { "type": "Point", "coordinates": [ -0.116224437842769, 51.366734358432453 ] } },
{ "type": "Feature", "properties": { "CODE": "22.23", "NAME": "Addlestone", "MAPTEXT": "Addlestone", "ANG": 0.000000, "L20": "Y", "GRAPHIC_ID": "RLP0000468", "MI_STYLE": null, "MI_PRINX": 79.000000 }, "geometry": { "type": "Point", "coordinates": [ -0.483058515989366, 51.372363028794901 ] } },
{ "type": "Feature", "properties": { "CODE": "22.23", "NAME": "Carshalton", "MAPTEXT": "Carshalton", "ANG": 0.000000, "L20": "Y", "GRAPHIC_ID": "RLP0000943", "MI_STYLE": null, "MI_PRINX": 80.000000 }, "geometry": { "type": "Point", "coordinates": [ -0.164615059313433, 51.367924843368677 ] } },
{ "type": "Feature", "properties": { "CODE": "22.23", "NAME": "Eynsford", "MAPTEXT": "Eynsford", "ANG": 0.000000, "L20": "Y", "GRAPHIC_ID": "RLP0000494", "MI_STYLE": null, "MI_PRINX": 81.000000 }, "geometry": { "type": "Point", "coordinates": [ 0.205801628182341, 51.361968908773271 ] } },
{ "type": "Feature", "properties": { "CODE": "22.23", "NAME": "Walton-on-Thames", "MAPTEXT": "Walton-on-Thames", "ANG": 0.000000, "L20": "Y", "GRAPHIC_ID": "RLP0000471", "MI_STYLE": null, "MI_PRINX": 82.000000 }, "geometry": { "type": "Point", "coordinates": [ -0.413045491378627, 51.372053560642165 ] } },
{ "type": "Feature", "properties": { "CODE": "22.23", "NAME": "Hinchley Wood", "MAPTEXT": "Hinchley Wood", "ANG": 0.000000, "L20": "Y", "GRAPHIC_ID": "RLP0000422", "MI_STYLE": null, "MI_PRINX": 83.000000 }, "geometry": { "type": "Point", "coordinates": [ -0.33906685141438, 51.374616438969554 ] } },
{ "type": "Feature", "properties": { "CODE": "22.23", "NAME": "Hersham", "MAPTEXT": "Hersham", "ANG": 0.000000, "L20": "Y", "GRAPHIC_ID": "RLP0000777", "MI_STYLE": null, "MI_PRINX": 84.000000 }, "geometry": { "type": "Point", "coordinates": [ -0.388411938110916, 51.376139532295639 ] } },
{ "type": "Feature", "properties": { "CODE": "22.23", "NAME": "Sutton Common", "MAPTEXT": "Sutton Common", "ANG": 0.000000, "L20": "Y", "GRAPHIC_ID": "RLP0000429", "MI_STYLE": null, "MI_PRINX": 85.000000 }, "geometry": { "type": "Point", "coordinates": [ -0.195041696030427, 51.374610070779276 ] } },
{ "type": "Feature", "properties": { "CODE": "22.23", "NAME": "Tolworth", "MAPTEXT": "Tolworth", "ANG": 0.000000, "L20": "Y", "GRAPHIC_ID": "RLP0000781", "MI_STYLE": null, "MI_PRINX": 86.000000 }, "geometry": { "type": "Point", "coordinates": [ -0.277990915122211, 51.376197332209031 ] } },
{ "type": "Feature", "properties": { "CODE": "22.23", "NAME": "East Croydon", "MAPTEXT": "East Croydon", "ANG": 0.000000, "L20": "Y", "GRAPHIC_ID": "RLP0000438", "MI_STYLE": null, "MI_PRINX": 87.000000 }, "geometry": { "type": "Point", "coordinates": [ -0.091479189373436, 51.374539803764485 ] } },
{ "type": "Feature", "properties": { "CODE": "22.23", "NAME": "Esher", "MAPTEXT": "Esher", "ANG": 0.000000, "L20": "Y", "GRAPHIC_ID": "RLP0000936", "MI_STYLE": null, "MI_PRINX": 88.000000 }, "geometry": { "type": "Point", "coordinates": [ -0.351313973439055, 51.379397632450249 ] } },
{ "type": "Feature", "properties": { "CODE": "22.23", "NAME": "Orpington", "MAPTEXT": "Orpington", "ANG": 0.000000, "L20": "Y", "GRAPHIC_ID": "RLP0000462", "MI_STYLE": null, "MI_PRINX": 89.000000 }, "geometry": { "type": "Point", "coordinates": [ 0.090212058520378, 51.372695005744156 ] } },
{ "type": "Feature", "properties": { "CODE": "22.23", "NAME": "Hackbridge", "MAPTEXT": "Hackbridge", "ANG": 0.000000, "L20": "Y", "GRAPHIC_ID": "RLP0000792", "MI_STYLE": null, "MI_PRINX": 90.000000 }, "geometry": { "type": "Point", "coordinates": [ -0.152434007504788, 51.377177217930985 ] } },
{ "type": "Feature", "properties": { "CODE": "22.23", "NAME": "Longcross", "MAPTEXT": "Longcross", "ANG": 0.000000, "L20": "Y", "GRAPHIC_ID": "RLP0000413", "MI_STYLE": null, "MI_PRINX": 91.000000 }, "geometry": { "type": "Point", "coordinates": [ -0.592839737202222, 51.384561686642101 ] } },
{ "type": "Feature", "properties": { "CODE": "22.23", "NAME": "Hayes", "MAPTEXT": "Hayes", "ANG": 0.000000, "L20": "Y", "GRAPHIC_ID": "RLP0000460", "MI_STYLE": null, "MI_PRINX": 92.000000 }, "geometry": { "type": "Point", "coordinates": [ 0.011672242521308, 51.375761941913872 ] } },
{ "type": "Feature", "properties": { "CODE": "22.23", "NAME": "Worcester Park", "MAPTEXT": "Worcester Park", "ANG": 0.000000, "L20": "Y", "GRAPHIC_ID": "RLP0000784", "MI_STYLE": null, "MI_PRINX": 93.000000 }, "geometry": { "type": "Point", "coordinates": [ -0.243628770768145, 51.380444142822732 ] } },
{ "type": "Feature", "properties": { "CODE": "22.23", "NAME": "Chertsey", "MAPTEXT": "Chertsey", "ANG": 0.000000, "L20": "Y", "GRAPHIC_ID": "RLP0000415", "MI_STYLE": null, "MI_PRINX": 94.000000 }, "geometry": { "type": "Point", "coordinates": [ -0.508353436451152, 51.386509415585607 ] } },
{ "type": "Feature", "properties": { "CODE": "22.23", "NAME": "Malden Manor", "MAPTEXT": "Malden Manor", "ANG": 0.000000, "L20": "Y", "GRAPHIC_ID": "RLP0000937", "MI_STYLE": null, "MI_PRINX": 95.000000 }, "geometry": { "type": "Point", "coordinates": [ -0.259637108549849, 51.384064689426076 ] } },
{ "type": "Feature", "properties": { "CODE": "22.23", "NAME": "West Wickham", "MAPTEXT": "West Wickham", "ANG": 0.000000, "L20": "Y", "GRAPHIC_ID": "RLP0000941", "MI_STYLE": null, "MI_PRINX": 96.000000 }, "geometry": { "type": "Point", "coordinates": [ -0.012890611620858, 51.380561750466065 ] } },
{ "type": "Feature", "properties": { "CODE": "22.23", "NAME": "Thames Ditton", "MAPTEXT": "Thames Ditton", "ANG": 0.000000, "L20": "Y", "GRAPHIC_ID": "RLP0000421", "MI_STYLE": null, "MI_PRINX": 97.000000 }, "geometry": { "type": "Point", "coordinates": [ -0.337744053706118, 51.388169830762315 ] } },
{ "type": "Feature", "properties": { "CODE": "22.23", "NAME": "St. Helier", "MAPTEXT": "St. Helier", "ANG": 0.000000, "L20": "Y", "GRAPHIC_ID": "RLP0000428", "MI_STYLE": null, "MI_PRINX": 98.000000 }, "geometry": { "type": "Point", "coordinates": [ -0.197117020017884, 51.389234048110765 ] } },
{ "type": "Feature", "properties": { "CODE": "22.23", "NAME": "Surbiton", "MAPTEXT": "Surbiton", "ANG": 0.000000, "L20": "Y", "GRAPHIC_ID": "RLP0000780", "MI_STYLE": null, "MI_PRINX": 99.000000 }, "geometry": { "type": "Point", "coordinates": [ -0.302572719262258, 51.391746243343668 ] } },
{ "type": "Feature", "properties": { "CODE": "22.23", "NAME": "Eden Park", "MAPTEXT": "Eden Park", "ANG": 0.000000, "L20": "Y", "GRAPHIC_ID": "RLP0000454", "MI_STYLE": null, "MI_PRINX": 100.000000 }, "geometry": { "type": "Point", "coordinates": [ -0.024948470322787, 51.389406439540899 ] } },
{ "type": "Feature", "properties": { "CODE": "22.23", "NAME": "Petts Wood", "MAPTEXT": "Petts Wood", "ANG": 0.000000, "L20": "Y", "GRAPHIC_ID": "RLP0000459", "MI_STYLE": null, "MI_PRINX": 101.000000 }, "geometry": { "type": "Point", "coordinates": [ 0.075490366339121, 51.388026517386052 ] } },
{ "type": "Feature", "properties": { "CODE": "22.23", "NAME": "Mitcham Junction", "MAPTEXT": "Mitcham Junction", "ANG": 0.000000, "L20": "Y", "GRAPHIC_ID": "RLP0000427", "MI_STYLE": null, "MI_PRINX": 102.000000 }, "geometry": { "type": "Point", "coordinates": [ -0.156230342556747, 51.392153385948113 ] } },
{ "type": "Feature", "properties": { "CODE": "22.23", "NAME": "Shepperton", "MAPTEXT": "Shepperton", "ANG": 0.000000, "L20": "Y", "GRAPHIC_ID": "RLP0000416", "MI_STYLE": null, "MI_PRINX": 103.000000 }, "geometry": { "type": "Point", "coordinates": [ -0.445231899154032, 51.396399015017018 ] } },
{ "type": "Feature", "properties": { "CODE": "22.23", "NAME": "Selhurst", "MAPTEXT": "Selhurst", "ANG": 0.000000, "L20": "Y", "GRAPHIC_ID": "RLP0000432", "MI_STYLE": null, "MI_PRINX": 104.000000 }, "geometry": { "type": "Point", "coordinates": [ -0.087126418153226, 51.391294283828167 ] } },
{ "type": "Feature", "properties": { "CODE": "22.23", "NAME": "Motspur Park", "MAPTEXT": "Motspur Park", "ANG": 0.000000, "L20": "Y", "GRAPHIC_ID": "RLP0000425", "MI_STYLE": null, "MI_PRINX": 105.000000 }, "geometry": { "type": "Point", "coordinates": [ -0.23803536437212, 51.394832534833917 ] } },
{ "type": "Feature", "properties": { "CODE": "22.23", "NAME": "Morden South", "MAPTEXT": "Morden South", "ANG": 0.000000, "L20": "Y", "GRAPHIC_ID": "RLP0000426", "MI_STYLE": null, "MI_PRINX": 106.000000 }, "geometry": { "type": "Point", "coordinates": [ -0.197951519217463, 51.395339343161858 ] } },
{ "type": "Feature", "properties": { "CODE": "22.23", "NAME": "Virginia Water", "MAPTEXT": "Virginia Water", "ANG": 0.000000, "L20": "Y", "GRAPHIC_ID": "RLP0000414", "MI_STYLE": null, "MI_PRINX": 107.000000 }, "geometry": { "type": "Point", "coordinates": [ -0.560770864763666, 51.401159666364222 ] } },
{ "type": "Feature", "properties": { "CODE": "22.23", "NAME": "Berrylands", "MAPTEXT": "Berrylands", "ANG": 0.000000, "L20": "Y", "GRAPHIC_ID": "RLP0000779", "MI_STYLE": null, "MI_PRINX": 108.000000 }, "geometry": { "type": "Point", "coordinates": [ -0.279375525626498, 51.398210076222149 ] } },
{ "type": "Feature", "properties": { "CODE": "22.23", "NAME": "Norwood Junction", "MAPTEXT": "Norwood Junction", "ANG": 0.000000, "L20": "Y", "GRAPHIC_ID": "RLP0000431", "MI_STYLE": null, "MI_PRINX": 109.000000 }, "geometry": { "type": "Point", "coordinates": [ -0.073428566931361, 51.396458027154829 ] } },
{ "type": "Feature", "properties": { "CODE": "22.23", "NAME": "Swanley", "MAPTEXT": "Swanley", "ANG": 0.000000, "L20": "Y", "GRAPHIC_ID": "RLP0000942", "MI_STYLE": null, "MI_PRINX": 110.000000 }, "geometry": { "type": "Point", "coordinates": [ 0.170123114011633, 51.392611063120633 ] } },
{ "type": "Feature", "properties": { "CODE": "22.23", "NAME": "St. Mary Cray", "MAPTEXT": "St. Mary Cray", "ANG": 0.000000, "L20": "Y", "GRAPHIC_ID": "RLP0000461", "MI_STYLE": null, "MI_PRINX": 111.000000 }, "geometry": { "type": "Point", "coordinates": [ 0.107610541193133, 51.393979668490928 ] } },
{ "type": "Feature", "properties": { "CODE": "22.23", "NAME": "Thornton Heath", "MAPTEXT": "Thornton Heath", "ANG": 0.000000, "L20": "Y", "GRAPHIC_ID": "RLP0000794", "MI_STYLE": null, "MI_PRINX": 112.000000 }, "geometry": { "type": "Point", "coordinates": [ -0.098910235028143, 51.397958164179641 ] } },
{ "type": "Feature", "properties": { "CODE": "22.23", "NAME": "Hampton Court", "MAPTEXT": "Hampton Court", "ANG": 0.000000, "L20": "Y", "GRAPHIC_ID": "RLP0000420", "MI_STYLE": null, "MI_PRINX": 113.000000 }, "geometry": { "type": "Point", "coordinates": [ -0.341239256692043, 51.401817187378299 ] } },
{ "type": "Feature", "properties": { "CODE": "22.23", "NAME": "Elmers End", "MAPTEXT": "Elmers End", "ANG": 0.000000, "L20": "Y", "GRAPHIC_ID": "RLP0000452", "MI_STYLE": null, "MI_PRINX": 114.000000 }, "geometry": { "type": "Point", "coordinates": [ -0.048189299224301, 51.397428228804422 ] } },
{ "type": "Feature", "properties": { "CODE": "22.23", "NAME": "New Malden", "MAPTEXT": "New Malden", "ANG": 0.000000, "L20": "Y", "GRAPHIC_ID": "RLP0000424", "MI_STYLE": null, "MI_PRINX": 115.000000 }, "geometry": { "type": "Point", "coordinates": [ -0.254649470492946, 51.403135730492316 ] } },
{ "type": "Feature", "properties": { "CODE": "22.23", "NAME": "South Merton", "MAPTEXT": "South Merton", "ANG": 0.000000, "L20": "Y", "GRAPHIC_ID": "RLP0000423", "MI_STYLE": null, "MI_PRINX": 116.000000 }, "geometry": { "type": "Point", "coordinates": [ -0.204150500621275, 51.402546066273523 ] } },
{ "type": "Feature", "properties": { "CODE": "22.23", "NAME": "Bromley South", "MAPTEXT": "Bromley South", "ANG": 0.000000, "L20": "Y", "GRAPHIC_ID": "RLP0000458", "MI_STYLE": null, "MI_PRINX": 117.000000 }, "geometry": { "type": "Point", "coordinates": [ 0.019085548137745, 51.399333901088788 ] } },
{ "type": "Feature", "properties": { "CODE": "22.23", "NAME": "Bickley", "MAPTEXT": "Bickley", "ANG": 0.000000, "L20": "Y", "GRAPHIC_ID": "RLP0000457", "MI_STYLE": null, "MI_PRINX": 118.000000 }, "geometry": { "type": "Point", "coordinates": [ 0.046469487783786, 51.39933530636484 ] } },
{ "type": "Feature", "properties": { "CODE": "22.23", "NAME": "Longfield", "MAPTEXT": "Longfield", "ANG": 0.000000, "L20": "Y", "GRAPHIC_ID": "RLP0000466", "MI_STYLE": null, "MI_PRINX": 119.000000 }, "geometry": { "type": "Point", "coordinates": [ 0.301501339676724, 51.39551368033478 ] } },
{ "type": "Feature", "properties": { "CODE": "22.23", "NAME": "Birkbeck", "MAPTEXT": "Birkbeck", "ANG": 0.000000, "L20": "Y", "GRAPHIC_ID": "RLP0000801", "MI_STYLE": null, "MI_PRINX": 120.000000 }, "geometry": { "type": "Point", "coordinates": [ -0.054998116817353, 51.402719257305812 ] } },
{ "type": "Feature", "properties": { "CODE": "22.23", "NAME": "Raynes Park", "MAPTEXT": "Raynes Park", "ANG": 0.000000, "L20": "Y", "GRAPHIC_ID": "RLP0000783", "MI_STYLE": null, "MI_PRINX": 121.000000 }, "geometry": { "type": "Point", "coordinates": [ -0.228832709780915, 51.40832073742191 ] } },
{ "type": "Feature", "properties": { "CODE": "22.23", "NAME": "Mitcham Eastfields", "MAPTEXT": "Mitcham Eastfields", "ANG": 0.000000, "L20": "Y", "GRAPHIC_ID": "RLP0001053", "MI_STYLE": null, "MI_PRINX": 122.000000 }, "geometry": { "type": "Point", "coordinates": [ -0.153163253673042, 51.407183779177345 ] } },
{ "type": "Feature", "properties": { "CODE": "22.23", "NAME": "Shortlands", "MAPTEXT": "Shortlands", "ANG": 0.000000, "L20": "Y", "GRAPHIC_ID": "RLP0000450", "MI_STYLE": null, "MI_PRINX": 123.000000 }, "geometry": { "type": "Point", "coordinates": [ 0.003578787961432, 51.40499909246342 ] } },
{ "type": "Feature", "properties": { "CODE": "22.23", "NAME": "Farningham Road", "MAPTEXT": "Farningham Road", "ANG": 0.000000, "L20": "Y", "GRAPHIC_ID": "RLP0000465", "MI_STYLE": null, "MI_PRINX": 124.000000 }, "geometry": { "type": "Point", "coordinates": [ 0.237191789036693, 51.400900630023315 ] } },
{ "type": "Feature", "properties": { "CODE": "22.23", "NAME": "Wimbledon Chase", "MAPTEXT": "Wimbledon Chase", "ANG": 0.000000, "L20": "Y", "GRAPHIC_ID": "RLP0000782", "MI_STYLE": null, "MI_PRINX": 125.000000 }, "geometry": { "type": "Point", "coordinates": [ -0.21303504938546, 51.408926607137438 ] } },
{ "type": "Feature", "properties": { "CODE": "22.23", "NAME": "Chislehurst", "MAPTEXT": "Chislehurst", "ANG": 0.000000, "L20": "Y", "GRAPHIC_ID": "RLP0000456", "MI_STYLE": null, "MI_PRINX": 126.000000 }, "geometry": { "type": "Point", "coordinates": [ 0.058658941259771, 51.404867488110035 ] } },
{ "type": "Feature", "properties": { "CODE": "22.23", "NAME": "Upper Halliford", "MAPTEXT": "Upper Halliford", "ANG": 0.000000, "L20": "Y", "GRAPHIC_ID": "RLP0000776", "MI_STYLE": null, "MI_PRINX": 127.000000 }, "geometry": { "type": "Point", "coordinates": [ -0.429495508497237, 51.412453414030722 ] } },
{ "type": "Feature", "properties": { "CODE": "22.23", "NAME": "Norbiton", "MAPTEXT": "Norbiton", "ANG": 0.000000, "L20": "Y", "GRAPHIC_ID": "RLP0000419", "MI_STYLE": null, "MI_PRINX": 128.000000 }, "geometry": { "type": "Point", "coordinates": [ -0.282515256433788, 51.411558712174319 ] } },
{ "type": "Feature", "properties": { "CODE": "22.23", "NAME": "Clock House", "MAPTEXT": "Clock House", "ANG": 0.000000, "L20": "Y", "GRAPHIC_ID": "RLP0000448", "MI_STYLE": null, "MI_PRINX": 129.000000 }, "geometry": { "type": "Point", "coordinates": [ -0.039165722610675, 51.407825776695518 ] } },
{ "type": "Feature", "properties": { "CODE": "22.23", "NAME": "Kingston", "MAPTEXT": "Kingston", "ANG": 0.000000, "L20": "Y", "GRAPHIC_ID": "RLP0000778", "MI_STYLE": null, "MI_PRINX": 130.000000 }, "geometry": { "type": "Point", "coordinates": [ -0.300347616462312, 51.412164878264086 ] } },
{ "type": "Feature", "properties": { "CODE": "22.23", "NAME": "Bromley North", "MAPTEXT": "Bromley North", "ANG": 0.000000, "L20": "Y", "GRAPHIC_ID": "RLP0000455", "MI_STYLE": null, "MI_PRINX": 131.000000 }, "geometry": { "type": "Point", "coordinates": [ 0.018485954921802, 51.407756788403489 ] } },
{ "type": "Feature", "properties": { "CODE": "22.23", "NAME": "Norbury", "MAPTEXT": "Norbury", "ANG": 0.000000, "L20": "Y", "GRAPHIC_ID": "RLP0000939", "MI_STYLE": null, "MI_PRINX": 132.000000 }, "geometry": { "type": "Point", "coordinates": [ -0.12060444628926, 51.410700805157425 ] } },
{ "type": "Feature", "properties": { "CODE": "22.23", "NAME": "Hampton Wick", "MAPTEXT": "Hampton Wick", "ANG": 0.000000, "L20": "Y", "GRAPHIC_ID": "RLP0000418", "MI_STYLE": null, "MI_PRINX": 133.000000 }, "geometry": { "type": "Point", "coordinates": [ -0.310793320725696, 51.413769112288882 ] } },
{ "type": "Feature", "properties": { "CODE": "22.23", "NAME": "Hampton", "MAPTEXT": "Hampton", "ANG": 0.000000, "L20": "Y", "GRAPHIC_ID": "RLP0000417", "MI_STYLE": null, "MI_PRINX": 134.000000 }, "geometry": { "type": "Point", "coordinates": [ -0.370601951748767, 51.415233533296124 ] } },
{ "type": "Feature", "properties": { "CODE": "22.23", "NAME": "Beckenham Junction", "MAPTEXT": "Beckenham Junction", "ANG": 0.000000, "L20": "Y", "GRAPHIC_ID": "RLP0000446", "MI_STYLE": null, "MI_PRINX": 135.000000 }, "geometry": { "type": "Point", "coordinates": [ -0.024508056210659, 51.410298140226828 ] } },
{ "type": "Feature", "properties": { "CODE": "22.23", "NAME": "Kent House", "MAPTEXT": "Kent House", "ANG": 0.000000, "L20": "Y", "GRAPHIC_ID": "RLP0000799", "MI_STYLE": null, "MI_PRINX": 136.000000 }, "geometry": { "type": "Point", "coordinates": [ -0.043946008038706, 51.411559550407333 ] } },
{ "type": "Feature", "properties": { "CODE": "22.23", "NAME": "Sunbury", "MAPTEXT": "Sunbury", "ANG": 0.000000, "L20": "Y", "GRAPHIC_ID": "RLP0000935", "MI_STYLE": null, "MI_PRINX": 137.000000 }, "geometry": { "type": "Point", "coordinates": [ -0.417079088163488, 51.417234269052045 ] } },
{ "type": "Feature", "properties": { "CODE": "22.23", "NAME": "Anerley", "MAPTEXT": "Anerley", "ANG": 0.000000, "L20": "Y", "GRAPHIC_ID": "RLP0000430", "MI_STYLE": null, "MI_PRINX": 138.000000 }, "geometry": { "type": "Point", "coordinates": [ -0.06398501798127, 51.412021960674274 ] } },
{ "type": "Feature", "properties": { "CODE": "22.23", "NAME": "Ravensbourne", "MAPTEXT": "Ravensbourne", "ANG": 0.000000, "L20": "Y", "GRAPHIC_ID": "RLP0000400", "MI_STYLE": null, "MI_PRINX": 139.000000 }, "geometry": { "type": "Point", "coordinates": [ -0.006160723658431, 51.413415287595505 ] } },
{ "type": "Feature", "properties": { "CODE": "22.23", "NAME": "Sundridge Park", "MAPTEXT": "Sundridge Park", "ANG": 0.000000, "L20": "Y", "GRAPHIC_ID": "RLP0000771", "MI_STYLE": null, "MI_PRINX": 140.000000 }, "geometry": { "type": "Point", "coordinates": [ 0.022900060095259, 51.413155742525042 ] } },
{ "type": "Feature", "properties": { "CODE": "22.23", "NAME": "Kempton Park", "MAPTEXT": "Kempton Park", "ANG": 0.000000, "L20": "Y", "GRAPHIC_ID": "RLP0000373", "MI_STYLE": null, "MI_PRINX": 141.000000 }, "geometry": { "type": "Point", "coordinates": [ -0.408150682558264, 51.420280812291978 ] } },
{ "type": "Feature", "properties": { "CODE": "22.23", "NAME": "New Beckenham", "MAPTEXT": "New Beckenham", "ANG": 0.000000, "L20": "Y", "GRAPHIC_ID": "RLP0000769", "MI_STYLE": null, "MI_PRINX": 142.000000 }, "geometry": { "type": "Point", "coordinates": [ -0.033975393156976, 51.41566807502408 ] } },
{ "type": "Feature", "properties": { "CODE": "22.23", "NAME": "Streatham Common", "MAPTEXT": "Streatham Common", "ANG": 0.000000, "L20": "Y", "GRAPHIC_ID": "RLP0000759", "MI_STYLE": null, "MI_PRINX": 143.000000 }, "geometry": { "type": "Point", "coordinates": [ -0.134580090105609, 51.417839627598369 ] } },
{ "type": "Feature", "properties": { "CODE": "22.23", "NAME": "Penge West", "MAPTEXT": "Penge West", "ANG": 0.000000, "L20": "Y", "GRAPHIC_ID": "RLP0000393", "MI_STYLE": null, "MI_PRINX": 144.000000 }, "geometry": { "type": "Point", "coordinates": [ -0.059165309965283, 51.416929080702822 ] } },
{ "type": "Feature", "properties": { "CODE": "22.23", "NAME": "Crystal Palace", "MAPTEXT": "Crystal Palace", "ANG": 0.000000, "L20": "Y", "GRAPHIC_ID": "RLP0000392", "MI_STYLE": null, "MI_PRINX": 145.000000 }, "geometry": { "type": "Point", "coordinates": [ -0.071321226889601, 51.417292216935607 ] } },
{ "type": "Feature", "properties": { "CODE": "22.23", "NAME": "Tooting", "MAPTEXT": "Tooting", "ANG": 0.000000, "L20": "Y", "GRAPHIC_ID": "RLP0000758", "MI_STYLE": null, "MI_PRINX": 146.000000 }, "geometry": { "type": "Point", "coordinates": [ -0.159706799787155, 51.419082025029134 ] } },
{ "type": "Feature", "properties": { "CODE": "22.23", "NAME": "Elmstead Woods", "MAPTEXT": "Elmstead Woods", "ANG": 0.000000, "L20": "Y", "GRAPHIC_ID": "RLP0000990", "MI_STYLE": null, "MI_PRINX": 147.000000 }, "geometry": { "type": "Point", "coordinates": [ 0.045467658955296, 51.416178234534598 ] } },
{ "type": "Feature", "properties": { "CODE": "22.23", "NAME": "Wimbledon", "MAPTEXT": "Wimbledon", "ANG": 0.000000, "L20": "Y", "GRAPHIC_ID": "RLP0000929", "MI_STYLE": null, "MI_PRINX": 148.000000 }, "geometry": { "type": "Point", "coordinates": [ -0.204645357093442, 51.420440967424625 ] } },
{ "type": "Feature", "properties": { "CODE": "22.23", "NAME": "Penge East", "MAPTEXT": "Penge East", "ANG": 0.000000, "L20": "Y", "GRAPHIC_ID": "RLP0000768", "MI_STYLE": null, "MI_PRINX": 149.000000 }, "geometry": { "type": "Point", "coordinates": [ -0.052633545828311, 51.418478961479224 ] } },
{ "type": "Feature", "properties": { "CODE": "22.23", "NAME": "Teddington", "MAPTEXT": "Teddington", "ANG": 0.000000, "L20": "Y", "GRAPHIC_ID": "RLP0000376", "MI_STYLE": null, "MI_PRINX": 150.000000 }, "geometry": { "type": "Point", "coordinates": [ -0.33119761530098, 51.423763631508223 ] } },
{ "type": "Feature", "properties": { "CODE": "22.23", "NAME": "Egham", "MAPTEXT": "Egham", "ANG": 0.000000, "L20": "Y", "GRAPHIC_ID": "RLP0000748", "MI_STYLE": null, "MI_PRINX": 151.000000 }, "geometry": { "type": "Point", "coordinates": [ -0.54509722927423, 51.428719575050003 ] } },
{ "type": "Feature", "properties": { "CODE": "22.23", "NAME": "Haydons Road", "MAPTEXT": "Haydons Road", "ANG": 0.000000, "L20": "Y", "GRAPHIC_ID": "RLP0000384", "MI_STYLE": null, "MI_PRINX": 152.000000 }, "geometry": { "type": "Point", "coordinates": [ -0.187225801889413, 51.424671343400441 ] } },
{ "type": "Feature", "properties": { "CODE": "22.23", "NAME": "Gipsy Hill", "MAPTEXT": "Gipsy Hill", "ANG": 0.000000, "L20": "Y", "GRAPHIC_ID": "RLP0000761", "MI_STYLE": null, "MI_PRINX": 153.000000 }, "geometry": { "type": "Point", "coordinates": [ -0.082678314874512, 51.423906513480489 ] } },
{ "type": "Feature", "properties": { "CODE": "22.23", "NAME": "Streatham", "MAPTEXT": "Streatham", "ANG": 0.000000, "L20": "Y", "GRAPHIC_ID": "RLP0000757", "MI_STYLE": null, "MI_PRINX": 154.000000 }, "geometry": { "type": "Point", "coordinates": [ -0.130198221398292, 51.425117475271257 ] } },
{ "type": "Feature", "properties": { "CODE": "22.23", "NAME": "Lower Sydenham", "MAPTEXT": "Lower Sydenham", "ANG": 0.000000, "L20": "Y", "GRAPHIC_ID": "RLP0000398", "MI_STYLE": null, "MI_PRINX": 155.000000 }, "geometry": { "type": "Point", "coordinates": [ -0.032094671736241, 51.423936250032114 ] } },
{ "type": "Feature", "properties": { "CODE": "22.23", "NAME": "Beckenham Hill", "MAPTEXT": "Beckenham Hill", "ANG": 0.000000, "L20": "Y", "GRAPHIC_ID": "RLP0000767", "MI_STYLE": null, "MI_PRINX": 156.000000 }, "geometry": { "type": "Point", "coordinates": [ -0.014553019624794, 51.423759867176379 ] } },
{ "type": "Feature", "properties": { "CODE": "22.23", "NAME": "Staines", "MAPTEXT": "Staines", "ANG": 0.000000, "L20": "Y", "GRAPHIC_ID": "RLP0000747", "MI_STYLE": null, "MI_PRINX": 157.000000 }, "geometry": { "type": "Point", "coordinates": [ -0.501647179585504, 51.431639585074372 ] } },
{ "type": "Feature", "properties": { "CODE": "22.23", "NAME": "Sydenham", "MAPTEXT": "Sydenham", "ANG": 0.000000, "L20": "Y", "GRAPHIC_ID": "RLP0000397", "MI_STYLE": null, "MI_PRINX": 158.000000 }, "geometry": { "type": "Point", "coordinates": [ -0.053257555419083, 51.426197581628053 ] } },
{ "type": "Feature", "properties": { "CODE": "22.23", "NAME": "Fulwell", "MAPTEXT": "Fulwell", "ANG": 0.000000, "L20": "Y", "GRAPHIC_ID": "RLP0000372", "MI_STYLE": null, "MI_PRINX": 159.000000 }, "geometry": { "type": "Point", "coordinates": [ -0.349254179647591, 51.432746282114223 ] } },
{ "type": "Feature", "properties": { "CODE": "22.23", "NAME": "Ashford", "MAPTEXT": "Ashford", "ANG": 0.000000, "L20": "Y", "GRAPHIC_ID": "RLP0000370", "MI_STYLE": null, "MI_PRINX": 160.000000 }, "geometry": { "type": "Point", "coordinates": [ -0.466719222307555, 51.435805242538159 ] } },
{ "type": "Feature", "properties": { "CODE": "22.23", "NAME": "West Norwood", "MAPTEXT": "West Norwood", "ANG": 0.000000, "L20": "Y", "GRAPHIC_ID": "RLP0000391", "MI_STYLE": null, "MI_PRINX": 161.000000 }, "geometry": { "type": "Point", "coordinates": [ -0.102250961728049, 51.430896533395448 ] } },
{ "type": "Feature", "properties": { "CODE": "22.23", "NAME": "Grove Park", "MAPTEXT": "Grove Park", "ANG": 0.000000, "L20": "Y", "GRAPHIC_ID": "RLP0000403", "MI_STYLE": null, "MI_PRINX": 162.000000 }, "geometry": { "type": "Point", "coordinates": [ 0.023296743275179, 51.429963274559128 ] } },
{ "type": "Feature", "properties": { "CODE": "22.23", "NAME": "Sydenham Hill", "MAPTEXT": "Sydenham Hill", "ANG": 0.000000, "L20": "Y", "GRAPHIC_ID": "RLP0000389", "MI_STYLE": null, "MI_PRINX": 163.000000 }, "geometry": { "type": "Point", "coordinates": [ -0.079048248094606, 51.4319024904405 ] } },
{ "type": "Feature", "properties": { "CODE": "22.23", "NAME": "Bellingham", "MAPTEXT": "Bellingham", "ANG": 0.000000, "L20": "Y", "GRAPHIC_ID": "RLP0000766", "MI_STYLE": null, "MI_PRINX": 164.000000 }, "geometry": { "type": "Point", "coordinates": [ -0.018083282179314, 51.432372711485165 ] } },
{ "type": "Feature", "properties": { "CODE": "22.23", "NAME": "Strawberry Hill", "MAPTEXT": "Strawberry Hill", "ANG": 0.000000, "L20": "Y", "GRAPHIC_ID": "RLP0000375", "MI_STYLE": null, "MI_PRINX": 165.000000 }, "geometry": { "type": "Point", "coordinates": [ -0.337909921850684, 51.438313671032958 ] } },
{ "type": "Feature", "properties": { "CODE": "22.23", "NAME": "Sidcup", "MAPTEXT": "Sidcup", "ANG": 0.000000, "L20": "Y", "GRAPHIC_ID": "RLP0000407", "MI_STYLE": null, "MI_PRINX": 166.000000 }, "geometry": { "type": "Point", "coordinates": [ 0.105169625030285, 51.433280167117388 ] } },
{ "type": "Feature", "properties": { "CODE": "22.23", "NAME": "Streatham Hill", "MAPTEXT": "Streatham Hill", "ANG": 0.000000, "L20": "Y", "GRAPHIC_ID": "RLP0000760", "MI_STYLE": null, "MI_PRINX": 167.000000 }, "geometry": { "type": "Point", "coordinates": [ -0.126068941172064, 51.437466803245847 ] } },
{ "type": "Feature", "properties": { "CODE": "22.23", "NAME": "Albany Park", "MAPTEXT": "Albany Park", "ANG": 0.000000, "L20": "Y", "GRAPHIC_ID": "RLP0000772", "MI_STYLE": null, "MI_PRINX": 168.000000 }, "geometry": { "type": "Point", "coordinates": [ 0.127450162805963, 51.434623404034937 ] } },
{ "type": "Feature", "properties": { "CODE": "22.23", "NAME": "Tulse Hill", "MAPTEXT": "Tulse Hill", "ANG": 0.000000, "L20": "Y", "GRAPHIC_ID": "RLP0000388", "MI_STYLE": null, "MI_PRINX": 169.000000 }, "geometry": { "type": "Point", "coordinates": [ -0.10358271305296, 51.439164332614105 ] } },
{ "type": "Feature", "properties": { "CODE": "22.23", "NAME": "Forest Hill", "MAPTEXT": "Forest Hill", "ANG": 0.000000, "L20": "Y", "GRAPHIC_ID": "RLP0000765", "MI_STYLE": null, "MI_PRINX": 170.000000 }, "geometry": { "type": "Point", "coordinates": [ -0.051849106145951, 51.438486545279069 ] } },
{ "type": "Feature", "properties": { "CODE": "22.23", "NAME": "West Dulwich", "MAPTEXT": "West Dulwich", "ANG": 0.000000, "L20": "Y", "GRAPHIC_ID": "RLP0000932", "MI_STYLE": null, "MI_PRINX": 171.000000 }, "geometry": { "type": "Point", "coordinates": [ -0.090086270640511, 51.440029402931813 ] } },
{ "type": "Feature", "properties": { "CODE": "22.23", "NAME": "New Eltham", "MAPTEXT": "New Eltham", "ANG": 0.000000, "L20": "Y", "GRAPHIC_ID": "RLP0000402", "MI_STYLE": null, "MI_PRINX": 172.000000 }, "geometry": { "type": "Point", "coordinates": [ 0.071965825082888, 51.437341052765554 ] } },
{ "type": "Feature", "properties": { "CODE": "22.23", "NAME": "Hendon", "MAPTEXT": "Hendon", "ANG": 0.000000, "L20": "Y", "GRAPHIC_ID": "RLP0000642", "MI_STYLE": null, "MI_PRINX": 340.000000 }, "geometry": { "type": "Point", "coordinates": [ -0.237333922972758, 51.579207110821216 ] } },
{ "type": "Feature", "properties": { "CODE": "22.23", "NAME": "Romford", "MAPTEXT": "Romford", "ANG": 0.000000, "L20": "Y", "GRAPHIC_ID": "RLP0000151", "MI_STYLE": null, "MI_PRINX": 341.000000 }, "geometry": { "type": "Point", "coordinates": [ 0.183969955027544, 51.57395397902647 ] } },
{ "type": "Feature", "properties": { "CODE": "22.23", "NAME": "St. James Street", "MAPTEXT": "St. James Street", "ANG": 0.000000, "L20": "Y", "GRAPHIC_ID": "RLP0000905", "MI_STYLE": null, "MI_PRINX": 342.000000 }, "geometry": { "type": "Point", "coordinates": [ -0.032654399569137, 51.581115711325715 ] } },
{ "type": "Feature", "properties": { "CODE": "22.23", "NAME": "Gerrards Cross", "MAPTEXT": "Gerrards Cross", "ANG": 0.000000, "L20": "Y", "GRAPHIC_ID": "RLP0000096", "MI_STYLE": null, "MI_PRINX": 343.000000 }, "geometry": { "type": "Point", "coordinates": [ -0.553666810697457, 51.588216275260535 ] } },
{ "type": "Feature", "properties": { "CODE": "22.23", "NAME": "Seven Sisters", "MAPTEXT": "Seven Sisters", "ANG": 0.000000, "L20": "Y", "GRAPHIC_ID": "RLP0000646", "MI_STYLE": null, "MI_PRINX": 344.000000 }, "geometry": { "type": "Point", "coordinates": [ -0.075026852829909, 51.583302483027346 ] } },
{ "type": "Feature", "properties": { "CODE": "22.23", "NAME": "Walthamstow Central", "MAPTEXT": "Walthamstow Central", "ANG": 0.000000, "L20": "Y", "GRAPHIC_ID": "RLP0000139", "MI_STYLE": null, "MI_PRINX": 345.000000 }, "geometry": { "type": "Point", "coordinates": [ -0.020219494673703, 51.582988120552542 ] } },
{ "type": "Feature", "properties": { "CODE": "22.23", "NAME": "Hornsey", "MAPTEXT": "Hornsey", "ANG": 0.000000, "L20": "Y", "GRAPHIC_ID": "RLP0000128", "MI_STYLE": null, "MI_PRINX": 346.000000 }, "geometry": { "type": "Point", "coordinates": [ -0.110244775570893, 51.585620266886615 ] } },
{ "type": "Feature", "properties": { "CODE": "22.23", "NAME": "Gidea Park", "MAPTEXT": "Gidea Park", "ANG": 0.000000, "L20": "Y", "GRAPHIC_ID": "RLP0000150", "MI_STYLE": null, "MI_PRINX": 347.000000 }, "geometry": { "type": "Point", "coordinates": [ 0.2076776087029, 51.581337675779757 ] } },
{ "type": "Feature", "properties": { "CODE": "22.23", "NAME": "Wood Street", "MAPTEXT": "Wood Street", "ANG": 0.000000, "L20": "Y", "GRAPHIC_ID": "RLP0000137", "MI_STYLE": null, "MI_PRINX": 348.000000 }, "geometry": { "type": "Point", "coordinates": [ -0.002572138594289, 51.586624438954033 ] } },
{ "type": "Feature", "properties": { "CODE": "22.23", "NAME": "Tottenham Hale", "MAPTEXT": "Tottenham Hale", "ANG": 0.000000, "L20": "Y", "GRAPHIC_ID": "RLP0000956", "MI_STYLE": null, "MI_PRINX": 349.000000 }, "geometry": { "type": "Point", "coordinates": [ -0.059992371297008, 51.588293694213768 ] } },
{ "type": "Feature", "properties": { "CODE": "22.23", "NAME": "Bruce Grove", "MAPTEXT": "Bruce Grove", "ANG": 0.000000, "L20": "Y", "GRAPHIC_ID": "RLP0000617", "MI_STYLE": null, "MI_PRINX": 350.000000 }, "geometry": { "type": "Point", "coordinates": [ -0.068774348600435, 51.592664786159965 ] } },
{ "type": "Feature", "properties": { "CODE": "22.23", "NAME": "Alexandra Palace", "MAPTEXT": "Alexandra Palace", "ANG": 0.000000, "L20": "Y", "GRAPHIC_ID": "RLP0000616", "MI_STYLE": null, "MI_PRINX": 351.000000 }, "geometry": { "type": "Point", "coordinates": [ -0.119113363184539, 51.597166903519351 ] } },
{ "type": "Feature", "properties": { "CODE": "22.23", "NAME": "Harold Wood", "MAPTEXT": "Harold Wood", "ANG": 0.000000, "L20": "Y", "GRAPHIC_ID": "RLP0000622", "MI_STYLE": null, "MI_PRINX": 352.000000 }, "geometry": { "type": "Point", "coordinates": [ 0.234700635541444, 51.592122080805936 ] } },
{ "type": "Feature", "properties": { "CODE": "22.23", "NAME": "Seer Green", "MAPTEXT": "Seer Green", "ANG": 0.000000, "L20": "Y", "GRAPHIC_ID": "RLP0000606", "MI_STYLE": null, "MI_PRINX": 353.000000 }, "geometry": { "type": "Point", "coordinates": [ -0.606486992508683, 51.60908222020695 ] } },
{ "type": "Feature", "properties": { "CODE": "22.23", "NAME": "Northumberland Park", "MAPTEXT": "Northumberland Park", "ANG": 0.000000, "L20": "Y", "GRAPHIC_ID": "RLP0000086", "MI_STYLE": null, "MI_PRINX": 354.000000 }, "geometry": { "type": "Point", "coordinates": [ -0.052638814038963, 51.601211429500516 ] } },
{ "type": "Feature", "properties": { "CODE": "22.23", "NAME": "Beaconsfield", "MAPTEXT": "Beaconsfield", "ANG": 0.000000, "L20": "Y", "GRAPHIC_ID": "RLP0000056", "MI_STYLE": null, "MI_PRINX": 355.000000 }, "geometry": { "type": "Point", "coordinates": [ -0.642425703987067, 51.610652474124976 ] } },
{ "type": "Feature", "properties": { "CODE": "22.23", "NAME": "White Hart Lane", "MAPTEXT": "White Hart Lane", "ANG": 0.000000, "L20": "Y", "GRAPHIC_ID": "RLP0000085", "MI_STYLE": null, "MI_PRINX": 356.000000 }, "geometry": { "type": "Point", "coordinates": [ -0.069624654633391, 51.604180362567767 ] } },
{ "type": "Feature", "properties": { "CODE": "22.23", "NAME": "Bowes Park", "MAPTEXT": "Bowes Park", "ANG": 0.000000, "L20": "Y", "GRAPHIC_ID": "RLP0000084", "MI_STYLE": null, "MI_PRINX": 357.000000 }, "geometry": { "type": "Point", "coordinates": [ -0.119188066587612, 51.606284962969717 ] } },
{ "type": "Feature", "properties": { "CODE": "22.23", "NAME": "Highams Park", "MAPTEXT": "Highams Park", "ANG": 0.000000, "L20": "Y", "GRAPHIC_ID": "RLP0000089", "MI_STYLE": null, "MI_PRINX": 358.000000 }, "geometry": { "type": "Point", "coordinates": [ 0.001040251015224, 51.607799765620733 ] } },
{ "type": "Feature", "properties": { "CODE": "22.23", "NAME": "Mill Hill Broadway", "MAPTEXT": "Mill Hill Broadway", "ANG": 0.000000, "L20": "Y", "GRAPHIC_ID": "RLP0000609", "MI_STYLE": null, "MI_PRINX": 359.000000 }, "geometry": { "type": "Point", "coordinates": [ -0.247769878242405, 51.612081398859225 ] } },
{ "type": "Feature", "properties": { "CODE": "22.23", "NAME": "Angel Road", "MAPTEXT": "Angel Road", "ANG": 0.000000, "L20": "Y", "GRAPHIC_ID": "RLP0000955", "MI_STYLE": null, "MI_PRINX": 360.000000 }, "geometry": { "type": "Point", "coordinates": [ -0.047876491817429, 51.611644853965245 ] } },
{ "type": "Feature", "properties": { "CODE": "22.23", "NAME": "New Southgate", "MAPTEXT": "New Southgate", "ANG": 0.000000, "L20": "Y", "GRAPHIC_ID": "RLP0000074", "MI_STYLE": null, "MI_PRINX": 361.000000 }, "geometry": { "type": "Point", "coordinates": [ -0.141975295791068, 51.613596816750636 ] } },
{ "type": "Feature", "properties": { "CODE": "22.23", "NAME": "Silver Street", "MAPTEXT": "Silver Street", "ANG": 0.000000, "L20": "Y", "GRAPHIC_ID": "RLP0000083", "MI_STYLE": null, "MI_PRINX": 362.000000 }, "geometry": { "type": "Point", "coordinates": [ -0.065661683896244, 51.614283582318095 ] } },
{ "type": "Feature", "properties": { "CODE": "22.23", "NAME": "Palmers Green", "MAPTEXT": "Palmers Green", "ANG": 0.000000, "L20": "Y", "GRAPHIC_ID": "RLP0000082", "MI_STYLE": null, "MI_PRINX": 363.000000 }, "geometry": { "type": "Point", "coordinates": [ -0.10889209756344, 51.617762715560616 ] } },
{ "type": "Feature", "properties": { "CODE": "22.23", "NAME": "Brentwood", "MAPTEXT": "Brentwood", "ANG": 0.000000, "L20": "Y", "GRAPHIC_ID": "RLP0000623", "MI_STYLE": null, "MI_PRINX": 364.000000 }, "geometry": { "type": "Point", "coordinates": [ 0.301391646478052, 51.612873948417011 ] } },
{ "type": "Feature", "properties": { "CODE": "22.23", "NAME": "Edmonton Green", "MAPTEXT": "Edmonton Green", "ANG": 0.000000, "L20": "Y", "GRAPHIC_ID": "RLP0000081", "MI_STYLE": null, "MI_PRINX": 365.000000 }, "geometry": { "type": "Point", "coordinates": [ -0.060073264643397, 51.623644489360885 ] } },
{ "type": "Feature", "properties": { "CODE": "22.23", "NAME": "Winchmore Hill", "MAPTEXT": "Winchmore Hill", "ANG": 0.000000, "L20": "Y", "GRAPHIC_ID": "RLP0000080", "MI_STYLE": null, "MI_PRINX": 366.000000 }, "geometry": { "type": "Point", "coordinates": [ -0.09960984094123, 51.633212408468594 ] } },
{ "type": "Feature", "properties": { "CODE": "22.23", "NAME": "Rickmansworth", "MAPTEXT": "Rickmansworth", "ANG": 0.000000, "L20": "Y", "GRAPHIC_ID": "RLP0000958", "MI_STYLE": null, "MI_PRINX": 367.000000 }, "geometry": { "type": "Point", "coordinates": [ -0.471712318498408, 51.639486601551681 ] } },
{ "type": "Feature", "properties": { "CODE": "22.23", "NAME": "Chingford", "MAPTEXT": "Chingford", "ANG": 0.000000, "L20": "Y", "GRAPHIC_ID": "RLP0000088", "MI_STYLE": null, "MI_PRINX": 368.000000 }, "geometry": { "type": "Point", "coordinates": [ 0.011389724195312, 51.632372251032209 ] } },
{ "type": "Feature", "properties": { "CODE": "22.23", "NAME": "Oakleigh Park", "MAPTEXT": "Oakleigh Park", "ANG": 0.000000, "L20": "Y", "GRAPHIC_ID": "RLP0000612", "MI_STYLE": null, "MI_PRINX": 369.000000 }, "geometry": { "type": "Point", "coordinates": [ -0.165146989883357, 51.637303272079016 ] } },
{ "type": "Feature", "properties": { "CODE": "22.23", "NAME": "Shenfield", "MAPTEXT": "Shenfield", "ANG": 0.000000, "L20": "Y", "GRAPHIC_ID": "RLP0000095", "MI_STYLE": null, "MI_PRINX": 370.000000 }, "geometry": { "type": "Point", "coordinates": [ 0.330972235605541, 51.629407785546753 ] } },
{ "type": "Feature", "properties": { "CODE": "22.23", "NAME": "Bush Hill Park", "MAPTEXT": "Bush Hill Park", "ANG": 0.000000, "L20": "Y", "GRAPHIC_ID": "RLP0000052", "MI_STYLE": null, "MI_PRINX": 371.000000 }, "geometry": { "type": "Point", "coordinates": [ -0.06786381986685, 51.640759932832211 ] } },
{ "type": "Feature", "properties": { "CODE": "22.23", "NAME": "Grange Park", "MAPTEXT": "Grange Park", "ANG": 0.000000, "L20": "Y", "GRAPHIC_ID": "RLP0000051", "MI_STYLE": null, "MI_PRINX": 372.000000 }, "geometry": { "type": "Point", "coordinates": [ -0.095620598995932, 51.642362416542717 ] } },
{ "type": "Feature", "properties": { "CODE": "22.23", "NAME": "Ponders End", "MAPTEXT": "Ponders End", "ANG": 0.000000, "L20": "Y", "GRAPHIC_ID": "RLP0000055", "MI_STYLE": null, "MI_PRINX": 373.000000 }, "geometry": { "type": "Point", "coordinates": [ -0.033820764307346, 51.641507193355295 ] } },
{ "type": "Feature", "properties": { "CODE": "22.23", "NAME": "New Barnet", "MAPTEXT": "New Barnet", "ANG": 0.000000, "L20": "Y", "GRAPHIC_ID": "RLP0000046", "MI_STYLE": null, "MI_PRINX": 374.000000 }, "geometry": { "type": "Point", "coordinates": [ -0.171388041723062, 51.647729556824217 ] } },
{ "type": "Feature", "properties": { "CODE": "22.23", "NAME": "Chorleywood", "MAPTEXT": "Chorleywood", "ANG": 0.000000, "L20": "Y", "GRAPHIC_ID": "RLP0000965", "MI_STYLE": null, "MI_PRINX": 375.000000 }, "geometry": { "type": "Point", "coordinates": [ -0.516614331309041, 51.653263621518676 ] } },
{ "type": "Feature", "properties": { "CODE": "22.23", "NAME": "Southbury", "MAPTEXT": "Southbury", "ANG": 0.000000, "L20": "Y", "GRAPHIC_ID": "RLP0000050", "MI_STYLE": null, "MI_PRINX": 376.000000 }, "geometry": { "type": "Point", "coordinates": [ -0.051151468421044, 51.647736013604025 ] } },
{ "type": "Feature", "properties": { "CODE": "22.23", "NAME": "Elstree & Borehamwood", "MAPTEXT": "Elstree & Borehamwood", "ANG": 0.000000, "L20": "Y", "GRAPHIC_ID": "RLP0000599", "MI_STYLE": null, "MI_PRINX": 377.000000 }, "geometry": { "type": "Point", "coordinates": [ -0.278563979149904, 51.652354253547834 ] } },
{ "type": "Feature", "properties": { "CODE": "22.23", "NAME": "Enfield Town", "MAPTEXT": "Enfield Town", "ANG": 0.000000, "L20": "Y", "GRAPHIC_ID": "RLP0000049", "MI_STYLE": null, "MI_PRINX": 378.000000 }, "geometry": { "type": "Point", "coordinates": [ -0.0777492286599, 51.651197475403258 ] } },
{ "type": "Feature", "properties": { "CODE": "22.23", "NAME": "Enfield Chase", "MAPTEXT": "Enfield Chase", "ANG": 0.000000, "L20": "Y", "GRAPHIC_ID": "RLP0000601", "MI_STYLE": null, "MI_PRINX": 379.000000 }, "geometry": { "type": "Point", "coordinates": [ -0.089441992349923, 51.652191911557374 ] } },
{ "type": "Feature", "properties": { "CODE": "22.23", "NAME": "Brimsdown", "MAPTEXT": "Brimsdown", "ANG": 0.000000, "L20": "Y", "GRAPHIC_ID": "RLP0000054", "MI_STYLE": null, "MI_PRINX": 380.000000 }, "geometry": { "type": "Point", "coordinates": [ -0.029391142142412, 51.654874867593925 ] } },
{ "type": "Feature", "properties": { "CODE": "22.22s", "NAME": "Watford Junction", "MAPTEXT": "Watford Junction", "ANG": 0.000000, "L20": "Y", "GRAPHIC_ID": "RLP0000961", "MI_STYLE": null, "MI_PRINX": 381.000000 }, "geometry": { "type": "Point", "coordinates": [ -0.395298567288582, 51.663004954345524 ] } },
{ "type": "Feature", "properties": { "CODE": "22.23", "NAME": "Chalfont & Latimer", "MAPTEXT": "Chalfont & Latimer", "ANG": 0.000000, "L20": "Y", "GRAPHIC_ID": "RLP0000029", "MI_STYLE": null, "MI_PRINX": 382.000000 }, "geometry": { "type": "Point", "coordinates": [ -0.55924011135274, 51.667296370591487 ] } },
{ "type": "Feature", "properties": { "CODE": "22.23", "NAME": "Gordon Hill", "MAPTEXT": "Gordon Hill", "ANG": 0.000000, "L20": "Y", "GRAPHIC_ID": "RLP0000048", "MI_STYLE": null, "MI_PRINX": 383.000000 }, "geometry": { "type": "Point", "coordinates": [ -0.093038491712314, 51.662386274233889 ] } },
{ "type": "Feature", "properties": { "CODE": "22.23", "NAME": "Amersham", "MAPTEXT": "Amersham", "ANG": 0.000000, "L20": "Y", "GRAPHIC_ID": "RLP0000596", "MI_STYLE": null, "MI_PRINX": 384.000000 }, "geometry": { "type": "Point", "coordinates": [ -0.606099444361941, 51.673337857527493 ] } },
{ "type": "Feature", "properties": { "CODE": "22.23", "NAME": "Hadley Wood", "MAPTEXT": "Hadley Wood", "ANG": 0.000000, "L20": "Y", "GRAPHIC_ID": "RLP0000898", "MI_STYLE": null, "MI_PRINX": 385.000000 }, "geometry": { "type": "Point", "coordinates": [ -0.174783477571434, 51.668063853668301 ] } },
{ "type": "Feature", "properties": { "CODE": "22.23", "NAME": "Watford North", "MAPTEXT": "Watford North", "ANG": 0.000000, "L20": "Y", "GRAPHIC_ID": "RLP0000035", "MI_STYLE": null, "MI_PRINX": 386.000000 }, "geometry": { "type": "Point", "coordinates": [ -0.388774181208843, 51.674543209390308 ] } },
{ "type": "Feature", "properties": { "CODE": "22.23", "NAME": "Enfield Lock", "MAPTEXT": "Enfield Lock", "ANG": 0.000000, "L20": "Y", "GRAPHIC_ID": "RLP0000602", "MI_STYLE": null, "MI_PRINX": 387.000000 }, "geometry": { "type": "Point", "coordinates": [ -0.027197514832578, 51.67010156283186 ] } },
{ "type": "Feature", "properties": { "CODE": "22.23", "NAME": "Turkey Street", "MAPTEXT": "Turkey Street", "ANG": 0.000000, "L20": "Y", "GRAPHIC_ID": "RLP0000053", "MI_STYLE": null, "MI_PRINX": 388.000000 }, "geometry": { "type": "Point", "coordinates": [ -0.045832255739547, 51.671735623544166 ] } },
{ "type": "Feature", "properties": { "CODE": "22.23", "NAME": "Radlett", "MAPTEXT": "Radlett", "ANG": 0.000000, "L20": "Y", "GRAPHIC_ID": "RLP0000896", "MI_STYLE": null, "MI_PRINX": 389.000000 }, "geometry": { "type": "Point", "coordinates": [ -0.315777671620213, 51.684664014766888 ] } },
{ "type": "Feature", "properties": { "CODE": "22.23", "NAME": "Garston", "MAPTEXT": "Garston", "ANG": 0.000000, "L20": "Y", "GRAPHIC_ID": "RLP0000598", "MI_STYLE": null, "MI_PRINX": 390.000000 }, "geometry": { "type": "Point", "coordinates": [ -0.380361590085389, 51.686004648183292 ] } },
{ "type": "Feature", "properties": { "CODE": "22.23", "NAME": "Crews Hill", "MAPTEXT": "Crews Hill", "ANG": 0.000000, "L20": "Y", "GRAPHIC_ID": "RLP0000023", "MI_STYLE": null, "MI_PRINX": 391.000000 }, "geometry": { "type": "Point", "coordinates": [ -0.105825432166535, 51.683862351880435 ] } },
{ "type": "Feature", "properties": { "CODE": "22.23", "NAME": "Waltham Cross", "MAPTEXT": "Waltham Cross", "ANG": 0.000000, "L20": "Y", "GRAPHIC_ID": "RLP0000026", "MI_STYLE": null, "MI_PRINX": 392.000000 }, "geometry": { "type": "Point", "coordinates": [ -0.025054777675449, 51.68443977240004 ] } },
{ "type": "Feature", "properties": { "CODE": "22.23", "NAME": "Theobalds Grove", "MAPTEXT": "Theobalds Grove", "ANG": 0.000000, "L20": "Y", "GRAPHIC_ID": "RLP0000025", "MI_STYLE": null, "MI_PRINX": 393.000000 }, "geometry": { "type": "Point", "coordinates": [ -0.034087667926097, 51.691301408000257 ] } },
{ "type": "Feature", "properties": { "CODE": "22.23", "NAME": "Potters Bar", "MAPTEXT": "Potters Bar", "ANG": 0.000000, "L20": "Y", "GRAPHIC_ID": "RLP0000595", "MI_STYLE": null, "MI_PRINX": 394.000000 }, "geometry": { "type": "Point", "coordinates": [ -0.191652360005474, 51.696804619611129 ] } },
{ "type": "Feature", "properties": { "CODE": "22.23", "NAME": "Kings Langley", "MAPTEXT": "Kings Langley", "ANG": 0.000000, "L20": "Y", "GRAPHIC_ID": "RLP0000019", "MI_STYLE": null, "MI_PRINX": 395.000000 }, "geometry": { "type": "Point", "coordinates": [ -0.436540617015153, 51.705551571768062 ] } },
{ "type": "Feature", "properties": { "CODE": "22.23", "NAME": "Bricket Wood", "MAPTEXT": "Bricket Wood", "ANG": 0.000000, "L20": "Y", "GRAPHIC_ID": "RLP0000594", "MI_STYLE": null, "MI_PRINX": 396.000000 }, "geometry": { "type": "Point", "coordinates": [ -0.357581541801573, 51.704985625705653 ] } },
{ "type": "Feature", "properties": { "CODE": "22.23", "NAME": "Cheshunt", "MAPTEXT": "Cheshunt", "ANG": 0.000000, "L20": "Y", "GRAPHIC_ID": "RLP0000024", "MI_STYLE": null, "MI_PRINX": 397.000000 }, "geometry": { "type": "Point", "coordinates": [ -0.022350172877582, 51.702074467574072 ] } },
{ "type": "Feature", "properties": { "CODE": "22.23", "NAME": "Cuffley", "MAPTEXT": "Cuffley", "ANG": 0.000000, "L20": "Y", "GRAPHIC_ID": "RLP0000022", "MI_STYLE": null, "MI_PRINX": 398.000000 }, "geometry": { "type": "Point", "coordinates": [ -0.108446229647604, 51.707991911558899 ] } },
{ "type": "Feature", "properties": { "CODE": "22.23", "NAME": "How Wood", "MAPTEXT": "How Wood", "ANG": 0.000000, "L20": "Y", "GRAPHIC_ID": "RLP0000593", "MI_STYLE": null, "MI_PRINX": 399.000000 }, "geometry": { "type": "Point", "coordinates": [ -0.343276462254048, 51.716827021264784 ] } },
{ "type": "Feature", "properties": { "CODE": "22.23", "NAME": "Brookmans Park", "MAPTEXT": "Brookmans Park", "ANG": 0.000000, "L20": "Y", "GRAPHIC_ID": "RLP0000020", "MI_STYLE": null, "MI_PRINX": 400.000000 }, "geometry": { "type": "Point", "coordinates": [ -0.203316750171972, 51.72021216601339 ] } },
{ "type": "Feature", "properties": { "CODE": "22.23", "NAME": "Park Street", "MAPTEXT": "Park Street", "ANG": 0.000000, "L20": "Y", "GRAPHIC_ID": "RLP0000592", "MI_STYLE": null, "MI_PRINX": 401.000000 }, "geometry": { "type": "Point", "coordinates": [ -0.338640597592779, 51.724750376295319 ] } },
{ "type": "Feature", "properties": { "CODE": "22.23", "NAME": "Apsley", "MAPTEXT": "Apsley", "ANG": 0.000000, "L20": "Y", "GRAPHIC_ID": "RLP0000018", "MI_STYLE": null, "MI_PRINX": 402.000000 }, "geometry": { "type": "Point", "coordinates": [ -0.46206567678581, 51.73178439315295 ] } },
{ "type": "Feature", "properties": { "CODE": "22.23", "NAME": "Welham Green", "MAPTEXT": "Welham Green", "ANG": 0.000000, "L20": "Y", "GRAPHIC_ID": "RLP0000014", "MI_STYLE": null, "MI_PRINX": 403.000000 }, "geometry": { "type": "Point", "coordinates": [ -0.209691658819272, 51.735995083344356 ] } },
{ "type": "Feature", "properties": { "CODE": "22.23", "NAME": "Hemel Hempstead", "MAPTEXT": "Hemel Hempstead", "ANG": 0.000000, "L20": "Y", "GRAPHIC_ID": "RLP0000011", "MI_STYLE": null, "MI_PRINX": 404.000000 }, "geometry": { "type": "Point", "coordinates": [ -0.48951715762116, 51.7414736133669 ] } },
{ "type": "Feature", "properties": { "CODE": "22.23", "NAME": "St. Albans Abbey", "MAPTEXT": "St. Albans Abbey", "ANG": 0.000000, "L20": "Y", "GRAPHIC_ID": "RLP0000012", "MI_STYLE": null, "MI_PRINX": 405.000000 }, "geometry": { "type": "Point", "coordinates": [ -0.340806698861468, 51.743740084408294 ] } },
{ "type": "Feature", "properties": { "CODE": "22.23", "NAME": "St. Albans City", "MAPTEXT": "St. Albans City", "ANG": 0.000000, "L20": "Y", "GRAPHIC_ID": "RLP0000589", "MI_STYLE": null, "MI_PRINX": 406.000000 }, "geometry": { "type": "Point", "coordinates": [ -0.326341213520696, 51.749891917135677 ] } },
{ "type": "Feature", "properties": { "CODE": "22.23", "NAME": "Broxbourne", "MAPTEXT": "Broxbourne", "ANG": 0.000000, "L20": "Y", "GRAPHIC_ID": "RLP0000590", "MI_STYLE": null, "MI_PRINX": 407.000000 }, "geometry": { "type": "Point", "coordinates": [ -0.009250031090573, 51.746124726753223 ] } },
{ "type": "Feature", "properties": { "CODE": "22.23", "NAME": "Berkhamsted", "MAPTEXT": "Berkhamsted", "ANG": 0.000000, "L20": "Y", "GRAPHIC_ID": "RLP0000588", "MI_STYLE": null, "MI_PRINX": 408.000000 }, "geometry": { "type": "Point", "coordinates": [ -0.560868310928349, 51.762816312107155 ] } },
{ "type": "Feature", "properties": { "CODE": "22.23", "NAME": "Bayford", "MAPTEXT": "Bayford", "ANG": 0.000000, "L20": "Y", "GRAPHIC_ID": "RLP0000894", "MI_STYLE": null, "MI_PRINX": 409.000000 }, "geometry": { "type": "Point", "coordinates": [ -0.094285474981186, 51.757595212999711 ] } },
{ "type": "Feature", "properties": { "CODE": "22.23", "NAME": "Hatfield", "MAPTEXT": "Hatfield", "ANG": 0.000000, "L20": "Y", "GRAPHIC_ID": "RLP0000013", "MI_STYLE": null, "MI_PRINX": 410.000000 }, "geometry": { "type": "Point", "coordinates": [ -0.214418657839492, 51.76447829449716 ] } },
{ "type": "Feature", "properties": { "CODE": "22.23", "NAME": "Rye House", "MAPTEXT": "Rye House", "ANG": 0.000000, "L20": "Y", "GRAPHIC_ID": "RLP0000017", "MI_STYLE": null, "MI_PRINX": 411.000000 }, "geometry": { "type": "Point", "coordinates": [ 0.006983706635097, 51.768428931252231 ] } },
{ "type": "Feature", "properties": { "CODE": "22.23", "NAME": "Roydon", "MAPTEXT": "Roydon", "ANG": 0.000000, "L20": "Y", "GRAPHIC_ID": "RLP0000008", "MI_STYLE": null, "MI_PRINX": 412.000000 }, "geometry": { "type": "Point", "coordinates": [ 0.037564958295348, 51.77472149691431 ] } },
{ "type": "Feature", "properties": { "CODE": "22.23", "NAME": "Harlow Town", "MAPTEXT": "Harlow Town", "ANG": 0.000000, "L20": "Y", "GRAPHIC_ID": "RLP0000893", "MI_STYLE": null, "MI_PRINX": 413.000000 }, "geometry": { "type": "Point", "coordinates": [ 0.096465101418903, 51.780591567041164 ] } },
{ "type": "Feature", "properties": { "CODE": "22.23", "NAME": "St. Margarets", "MAPTEXT": "St. Margarets", "ANG": 0.000000, "L20": "Y", "GRAPHIC_ID": "RLP0000587", "MI_STYLE": null, "MI_PRINX": 414.000000 }, "geometry": { "type": "Point", "coordinates": [ 0.002363424610578, 51.787239219227736 ] } },
{ "type": "Feature", "properties": { "CODE": "22.23", "NAME": "Harlow Mill", "MAPTEXT": "Harlow Mill", "ANG": 0.000000, "L20": "Y", "GRAPHIC_ID": "RLP0000009", "MI_STYLE": null, "MI_PRINX": 415.000000 }, "geometry": { "type": "Point", "coordinates": [ 0.133866280578536, 51.78982565155961 ] } },
{ "type": "Feature", "properties": { "CODE": "22.23", "NAME": "Hertford North", "MAPTEXT": "Hertford North", "ANG": 0.000000, "L20": "Y", "GRAPHIC_ID": "RLP0000006", "MI_STYLE": null, "MI_PRINX": 416.000000 }, "geometry": { "type": "Point", "coordinates": [ -0.090850440410408, 51.797660803242792 ] } },
{ "type": "Feature", "properties": { "CODE": "22.23", "NAME": "Welwyn Garden City", "MAPTEXT": "Welwyn Garden City", "ANG": 0.000000, "L20": "Y", "GRAPHIC_ID": "RLP0000003", "MI_STYLE": null, "MI_PRINX": 417.000000 }, "geometry": { "type": "Point", "coordinates": [ -0.202111107215505, 51.800301137874136 ] } },
{ "type": "Feature", "properties": { "CODE": "22.23", "NAME": "Hertford East", "MAPTEXT": "Hertford East", "ANG": 0.000000, "L20": "Y", "GRAPHIC_ID": "RLP0000005", "MI_STYLE": null, "MI_PRINX": 418.000000 }, "geometry": { "type": "Point", "coordinates": [ -0.070810593988703, 51.798588527002373 ] } },
{ "type": "Feature", "properties": { "CODE": "22.23", "NAME": "Ware", "MAPTEXT": "Ware", "ANG": 0.000000, "L20": "Y", "GRAPHIC_ID": "RLP0000007", "MI_STYLE": null, "MI_PRINX": 419.000000 }, "geometry": { "type": "Point", "coordinates": [ -0.027193538062533, 51.807263214960116 ] } },
{ "type": "Feature", "properties": { "CODE": "22.23", "NAME": "Sawbridgeworth", "MAPTEXT": "Sawbridgeworth", "ANG": 0.000000, "L20": "Y", "GRAPHIC_ID": "RLP0000586", "MI_STYLE": null, "MI_PRINX": 420.000000 }, "geometry": { "type": "Point", "coordinates": [ 0.161863311853593, 51.813791746478678 ] } },
{ "type": "Feature", "properties": { "CODE": "22.23", "NAME": "Welwyn North", "MAPTEXT": "Welwyn North", "ANG": 0.000000, "L20": "Y", "GRAPHIC_ID": "RLP0000002", "MI_STYLE": null, "MI_PRINX": 421.000000 }, "geometry": { "type": "Point", "coordinates": [ -0.190838001156946, 51.822892588507081 ] } },
{ "type": "Feature", "properties": { "CODE": "22.23", "NAME": "Earlsfield", "MAPTEXT": "Earlsfield", "ANG": 0.000000, "L20": "Y", "GRAPHIC_ID": "RLP0000381", "MI_STYLE": null, "MI_PRINX": 173.000000 }, "geometry": { "type": "Point", "coordinates": [ -0.18634042292607, 51.441775131694506 ] } },
{ "type": "Feature", "properties": { "CODE": "22.23", "NAME": "Balham", "MAPTEXT": "Balham", "ANG": 0.000000, "L20": "Y", "GRAPHIC_ID": "RLP0000380", "MI_STYLE": null, "MI_PRINX": 174.000000 }, "geometry": { "type": "Point", "coordinates": [ -0.150123023850108, 51.442151781903945 ] } },
{ "type": "Feature", "properties": { "CODE": "22.23", "NAME": "Mottingham", "MAPTEXT": "Mottingham", "ANG": 0.000000, "L20": "Y", "GRAPHIC_ID": "RLP0000401", "MI_STYLE": null, "MI_PRINX": 175.000000 }, "geometry": { "type": "Point", "coordinates": [ 0.051371782779377, 51.439567888404589 ] } },
{ "type": "Feature", "properties": { "CODE": "22.23", "NAME": "Feltham", "MAPTEXT": "Feltham", "ANG": 0.000000, "L20": "Y", "GRAPHIC_ID": "RLP0000752", "MI_STYLE": null, "MI_PRINX": 176.000000 }, "geometry": { "type": "Point", "coordinates": [ -0.409501735113684, 51.447014205460704 ] } },
{ "type": "Feature", "properties": { "CODE": "22.23", "NAME": "Bexley", "MAPTEXT": "Bexley", "ANG": 0.000000, "L20": "Y", "GRAPHIC_ID": "RLP0000406", "MI_STYLE": null, "MI_PRINX": 177.000000 }, "geometry": { "type": "Point", "coordinates": [ 0.149030845848462, 51.439487161956023 ] } },
{ "type": "Feature", "properties": { "CODE": "22.23", "NAME": "Wandsworth Common", "MAPTEXT": "Wandsworth Common", "ANG": 0.000000, "L20": "Y", "GRAPHIC_ID": "RLP0000755", "MI_STYLE": null, "MI_PRINX": 178.000000 }, "geometry": { "type": "Point", "coordinates": [ -0.162201983647517, 51.445464276383809 ] } },
{ "type": "Feature", "properties": { "CODE": "22.23", "NAME": "Whitton", "MAPTEXT": "Whitton", "ANG": 0.000000, "L20": "Y", "GRAPHIC_ID": "RLP0000751", "MI_STYLE": null, "MI_PRINX": 179.000000 }, "geometry": { "type": "Point", "coordinates": [ -0.356259386371837, 51.448734647777783 ] } },
{ "type": "Feature", "properties": { "CODE": "22.23", "NAME": "Catford Bridge", "MAPTEXT": "Catford Bridge", "ANG": 0.000000, "L20": "Y", "GRAPHIC_ID": "RLP0000764", "MI_STYLE": null, "MI_PRINX": 180.000000 }, "geometry": { "type": "Point", "coordinates": [ -0.023484260620175, 51.443890337577024 ] } },
{ "type": "Feature", "properties": { "CODE": "22.23", "NAME": "Catford", "MAPTEXT": "Catford", "ANG": 0.000000, "L20": "Y", "GRAPHIC_ID": "RLP0000933", "MI_STYLE": null, "MI_PRINX": 181.000000 }, "geometry": { "type": "Point", "coordinates": [ -0.024777556342608, 51.444008243078386 ] } },
{ "type": "Feature", "properties": { "CODE": "22.23", "NAME": "Twickenham", "MAPTEXT": "Twickenham", "ANG": 0.000000, "L20": "Y", "GRAPHIC_ID": "RLP0000753", "MI_STYLE": null, "MI_PRINX": 182.000000 }, "geometry": { "type": "Point", "coordinates": [ -0.328265743781536, 51.449558285796833 ] } },
{ "type": "Feature", "properties": { "CODE": "22.23", "NAME": "Gravesend", "MAPTEXT": "Gravesend", "ANG": 0.000000, "L20": "Y", "GRAPHIC_ID": "RLP0000775", "MI_STYLE": null, "MI_PRINX": 183.000000 }, "geometry": { "type": "Point", "coordinates": [ 0.367882827382292, 51.440580602253569 ] } },
{ "type": "Feature", "properties": { "CODE": "22.22s", "NAME": "Ebbsfleet International", "MAPTEXT": null, "ANG": 0.000000, "L20": "Y", "GRAPHIC_ID": "RLP0001006", "MI_STYLE": null, "MI_PRINX": 184.000000 }, "geometry": { "type": "Point", "coordinates": [ 0.321886307286362, 51.442124984085773 ] } },
{ "type": "Feature", "properties": { "CODE": "22.23", "NAME": "Honor Oak Park", "MAPTEXT": "Honor Oak Park", "ANG": 0.000000, "L20": "Y", "GRAPHIC_ID": "RLP0000763", "MI_STYLE": null, "MI_PRINX": 185.000000 }, "geometry": { "type": "Point", "coordinates": [ -0.044113430412303, 51.449359312726706 ] } },
{ "type": "Feature", "properties": { "CODE": "22.23", "NAME": "Wraysbury", "MAPTEXT": "Wraysbury", "ANG": 0.000000, "L20": "Y", "GRAPHIC_ID": "RLP0000369", "MI_STYLE": null, "MI_PRINX": 186.000000 }, "geometry": { "type": "Point", "coordinates": [ -0.540512162179554, 51.457169674483019 ] } },
{ "type": "Feature", "properties": { "CODE": "22.23", "NAME": "Lee", "MAPTEXT": "Lee", "ANG": 0.000000, "L20": "Y", "GRAPHIC_ID": "RLP0000396", "MI_STYLE": null, "MI_PRINX": 187.000000 }, "geometry": { "type": "Point", "coordinates": [ 0.014477740700551, 51.449065041097327 ] } },
{ "type": "Feature", "properties": { "CODE": "22.23", "NAME": "St. Margarets", "MAPTEXT": "St. Margarets", "ANG": 0.000000, "L20": "Y", "GRAPHIC_ID": "RLP0000374", "MI_STYLE": null, "MI_PRINX": 188.000000 }, "geometry": { "type": "Point", "coordinates": [ -0.319064492419372, 51.454356290806473 ] } },
{ "type": "Feature", "properties": { "CODE": "22.23", "NAME": "Dartford", "MAPTEXT": "Dartford", "ANG": 0.000000, "L20": "Y", "GRAPHIC_ID": "RLP0000773", "MI_STYLE": null, "MI_PRINX": 189.000000 }, "geometry": { "type": "Point", "coordinates": [ 0.220693742550277, 51.446685774014178 ] } },
{ "type": "Feature", "properties": { "CODE": "22.23", "NAME": "Crayford", "MAPTEXT": "Crayford", "ANG": 0.000000, "L20": "Y", "GRAPHIC_ID": "RLP0000408", "MI_STYLE": null, "MI_PRINX": 190.000000 }, "geometry": { "type": "Point", "coordinates": [ 0.180012944466616, 51.447522941163463 ] } },
{ "type": "Feature", "properties": { "CODE": "22.23", "NAME": "Herne Hill", "MAPTEXT": "Herne Hill", "ANG": 0.000000, "L20": "Y", "GRAPHIC_ID": "RLP0000387", "MI_STYLE": null, "MI_PRINX": 191.000000 }, "geometry": { "type": "Point", "coordinates": [ -0.100930982836537, 51.452656672686302 ] } },
{ "type": "Feature", "properties": { "CODE": "22.23", "NAME": "Hither Green", "MAPTEXT": "Hither Green", "ANG": 0.000000, "L20": "Y", "GRAPHIC_ID": "RLP0000395", "MI_STYLE": null, "MI_PRINX": 192.000000 }, "geometry": { "type": "Point", "coordinates": [ 0.000584326101981, 51.451135273777453 ] } },
{ "type": "Feature", "properties": { "CODE": "22.23", "NAME": "Northfleet", "MAPTEXT": "Northfleet", "ANG": 0.000000, "L20": "Y", "GRAPHIC_ID": "RLP0000774", "MI_STYLE": null, "MI_PRINX": 193.000000 }, "geometry": { "type": "Point", "coordinates": [ 0.325424229072688, 51.445193193305201 ] } },
{ "type": "Feature", "properties": { "CODE": "22.23", "NAME": "Heathrow Express Terminal 4", "MAPTEXT": null, "ANG": 0.000000, "L20": "Y", "GRAPHIC_ID": "RLP0000749", "MI_STYLE": null, "MI_PRINX": 194.000000 }, "geometry": { "type": "Point", "coordinates": [ -0.445031006531262, 51.458320798197953 ] } },
{ "type": "Feature", "properties": { "CODE": "22.23", "NAME": "North Dulwich", "MAPTEXT": "North Dulwich", "ANG": 0.000000, "L20": "Y", "GRAPHIC_ID": "RLP0000931", "MI_STYLE": null, "MI_PRINX": 195.000000 }, "geometry": { "type": "Point", "coordinates": [ -0.086871543770339, 51.453484853238493 ] } },
{ "type": "Feature", "properties": { "CODE": "22.23", "NAME": "Crofton Park", "MAPTEXT": "Crofton Park", "ANG": 0.000000, "L20": "Y", "GRAPHIC_ID": "RLP0000762", "MI_STYLE": null, "MI_PRINX": 196.000000 }, "geometry": { "type": "Point", "coordinates": [ -0.035227178419049, 51.454420312700904 ] } },
{ "type": "Feature", "properties": { "CODE": "22.23", "NAME": "Swanscombe", "MAPTEXT": "Swanscombe", "ANG": 0.000000, "L20": "Y", "GRAPHIC_ID": "RLP0000410", "MI_STYLE": null, "MI_PRINX": 197.000000 }, "geometry": { "type": "Point", "coordinates": [ 0.311343570907617, 51.44840033303953 ] } },
{ "type": "Feature", "properties": { "CODE": "22.23", "NAME": "Greenhithe", "MAPTEXT": "Greenhithe", "ANG": 0.000000, "L20": "Y", "GRAPHIC_ID": "RLP0000934", "MI_STYLE": null, "MI_PRINX": 198.000000 }, "geometry": { "type": "Point", "coordinates": [ 0.281657242688949, 51.449673122570545 ] } },
{ "type": "Feature", "properties": { "CODE": "22.23", "NAME": "Greenhithe for Bluewater", "MAPTEXT": "Greenhithe for Bluewater", "ANG": 0.000000, "L20": "Y", "GRAPHIC_ID": "RLP0000934", "MI_STYLE": null, "MI_PRINX": 199.000000 }, "geometry": { "type": "Point", "coordinates": [ 0.281657242688949, 51.449673122570545 ] } },
{ "type": "Feature", "properties": { "CODE": "22.23", "NAME": "Ladywell", "MAPTEXT": "Ladywell", "ANG": 0.000000, "L20": "Y", "GRAPHIC_ID": "RLP0000394", "MI_STYLE": null, "MI_PRINX": 200.000000 }, "geometry": { "type": "Point", "coordinates": [ -0.017795636317817, 51.455415503373885 ] } },
{ "type": "Feature", "properties": { "CODE": "22.23", "NAME": "Stone Crossing", "MAPTEXT": "Stone Crossing", "ANG": 0.000000, "L20": "Y", "GRAPHIC_ID": "RLP0000409", "MI_STYLE": null, "MI_PRINX": 201.000000 }, "geometry": { "type": "Point", "coordinates": [ 0.265025387227961, 51.45065985086373 ] } },
{ "type": "Feature", "properties": { "CODE": "22.23", "NAME": "Hounslow", "MAPTEXT": "Hounslow", "ANG": 0.000000, "L20": "Y", "GRAPHIC_ID": "RLP0000750", "MI_STYLE": null, "MI_PRINX": 202.000000 }, "geometry": { "type": "Point", "coordinates": [ -0.360824619305436, 51.461178749491594 ] } },
{ "type": "Feature", "properties": { "CODE": "22.23", "NAME": "Eltham", "MAPTEXT": "Eltham", "ANG": 0.000000, "L20": "Y", "GRAPHIC_ID": "RLP0000770", "MI_STYLE": null, "MI_PRINX": 203.000000 }, "geometry": { "type": "Point", "coordinates": [ 0.05314816160627, 51.454824444545274 ] } },
{ "type": "Feature", "properties": { "CODE": "22.23", "NAME": "Putney", "MAPTEXT": "Putney", "ANG": 0.000000, "L20": "Y", "GRAPHIC_ID": "RLP0000722", "MI_STYLE": null, "MI_PRINX": 204.000000 }, "geometry": { "type": "Point", "coordinates": [ -0.214947789869542, 51.460372390889837 ] } },
{ "type": "Feature", "properties": { "CODE": "22.23", "NAME": "Wandsworth Town", "MAPTEXT": "Wandsworth Town", "ANG": 0.000000, "L20": "Y", "GRAPHIC_ID": "RLP0000726", "MI_STYLE": null, "MI_PRINX": 205.000000 }, "geometry": { "type": "Point", "coordinates": [ -0.186912779629473, 51.460246951188736 ] } },
{ "type": "Feature", "properties": { "CODE": "22.23", "NAME": "East Dulwich", "MAPTEXT": "East Dulwich", "ANG": 0.000000, "L20": "Y", "GRAPHIC_ID": "RLP0000925", "MI_STYLE": null, "MI_PRINX": 206.000000 }, "geometry": { "type": "Point", "coordinates": [ -0.079088931538083, 51.46070463948702 ] } },
{ "type": "Feature", "properties": { "CODE": "22.23", "NAME": "Falconwood", "MAPTEXT": "Falconwood", "ANG": 0.000000, "L20": "Y", "GRAPHIC_ID": "RLP0000360", "MI_STYLE": null, "MI_PRINX": 207.000000 }, "geometry": { "type": "Point", "coordinates": [ 0.081202573593301, 51.458534372283182 ] } },
{ "type": "Feature", "properties": { "CODE": "22.23", "NAME": "North Sheen", "MAPTEXT": "North Sheen", "ANG": 0.000000, "L20": "Y", "GRAPHIC_ID": "RLP0000302", "MI_STYLE": null, "MI_PRINX": 208.000000 }, "geometry": { "type": "Point", "coordinates": [ -0.285769463342403, 51.464508557932994 ] } },
{ "type": "Feature", "properties": { "CODE": "22.23", "NAME": "Brixton", "MAPTEXT": "Brixton", "ANG": 0.000000, "L20": "Y", "GRAPHIC_ID": "RLP0000343", "MI_STYLE": null, "MI_PRINX": 209.000000 }, "geometry": { "type": "Point", "coordinates": [ -0.112102790858083, 51.462327278742322 ] } },
{ "type": "Feature", "properties": { "CODE": "22.22s", "NAME": "Clapham Junction", "MAPTEXT": null, "ANG": 0.000000, "L20": "Y", "GRAPHIC_ID": "RLP0001102", "MI_STYLE": null, "MI_PRINX": 210.000000 }, "geometry": { "type": "Point", "coordinates": [ -0.168379709988619, 51.463348365705507 ] } },
{ "type": "Feature", "properties": { "CODE": "22.23", "NAME": "Sunnymeads", "MAPTEXT": "Sunnymeads", "ANG": 0.000000, "L20": "Y", "GRAPHIC_ID": "RLP0000290", "MI_STYLE": null, "MI_PRINX": 211.000000 }, "geometry": { "type": "Point", "coordinates": [ -0.557920922513969, 51.469666904986333 ] } },
{ "type": "Feature", "properties": { "CODE": "22.22s", "NAME": "Clapham Junction", "MAPTEXT": null, "ANG": 0.000000, "L20": "Y", "GRAPHIC_ID": "RLP0001101", "MI_STYLE": null, "MI_PRINX": 212.000000 }, "geometry": { "type": "Point", "coordinates": [ -0.169231486927531, 51.464336002370452 ] } },
{ "type": "Feature", "properties": { "CODE": "22.23", "NAME": "Kidbrooke", "MAPTEXT": "Kidbrooke", "ANG": 0.000000, "L20": "Y", "GRAPHIC_ID": "RLP0000359", "MI_STYLE": null, "MI_PRINX": 213.000000 }, "geometry": { "type": "Point", "coordinates": [ 0.028528823178749, 51.461528231094739 ] } },
{ "type": "Feature", "properties": { "CODE": "22.23", "NAME": "Barnes", "MAPTEXT": "Barnes", "ANG": 0.000000, "L20": "Y", "GRAPHIC_ID": "RLP0000581", "MI_STYLE": null, "MI_PRINX": 214.000000 }, "geometry": { "type": "Point", "coordinates": [ -0.240836149400063, 51.466324836588441 ] } },
{ "type": "Feature", "properties": { "CODE": "22.23", "NAME": "Clapham High Street", "MAPTEXT": "Clapham High St.", "ANG": 0.000000, "L20": "Y", "GRAPHIC_ID": "RLP0000725", "MI_STYLE": null, "MI_PRINX": 215.000000 }, "geometry": { "type": "Point", "coordinates": [ -0.131201681419111, 51.464974451344538 ] } },
{ "type": "Feature", "properties": { "CODE": "22.23", "NAME": "Brockley", "MAPTEXT": "Brockley", "ANG": 0.000000, "L20": "Y", "GRAPHIC_ID": "RLP0000740", "MI_STYLE": null, "MI_PRINX": 216.000000 }, "geometry": { "type": "Point", "coordinates": [ -0.036479067003126, 51.463643854616997 ] } },
{ "type": "Feature", "properties": { "CODE": "22.23", "NAME": "Mortlake", "MAPTEXT": "Mortlake", "ANG": 0.000000, "L20": "Y", "GRAPHIC_ID": "RLP0000309", "MI_STYLE": null, "MI_PRINX": 217.000000 }, "geometry": { "type": "Point", "coordinates": [ -0.265614152358467, 51.46739896175221 ] } },
{ "type": "Feature", "properties": { "CODE": "22.23", "NAME": "Heathrow Express Terminal 5", "MAPTEXT": null, "ANG": 0.000000, "L20": "Y", "GRAPHIC_ID": "RLP0001022", "MI_STYLE": null, "MI_PRINX": 218.000000 }, "geometry": { "type": "Point", "coordinates": [ -0.487425686353848, 51.470704109609507 ] } },
{ "type": "Feature", "properties": { "CODE": "22.23", "NAME": "Loughborough Junction", "MAPTEXT": "Loughborough Junction", "ANG": 0.000000, "L20": "Y", "GRAPHIC_ID": "RLP0000924", "MI_STYLE": null, "MI_PRINX": 219.000000 }, "geometry": { "type": "Point", "coordinates": [ -0.100716619270155, 51.465514820252665 ] } },
{ "type": "Feature", "properties": { "CODE": "22.23", "NAME": "Heathrow Express Terminals 1 & 3", "MAPTEXT": null, "ANG": 0.000000, "L20": "Y", "GRAPHIC_ID": "RLP0000711", "MI_STYLE": null, "MI_PRINX": 220.000000 }, "geometry": { "type": "Point", "coordinates": [ -0.454449169418166, 51.470713349703445 ] } },
{ "type": "Feature", "properties": { "CODE": "22.23", "NAME": "Lewisham", "MAPTEXT": "Lewisham", "ANG": 0.000000, "L20": "Y", "GRAPHIC_ID": "RLP0000354", "MI_STYLE": null, "MI_PRINX": 221.000000 }, "geometry": { "type": "Point", "coordinates": [ -0.012836555133231, 51.464925659734838 ] } },
{ "type": "Feature", "properties": { "CODE": "22.23", "NAME": "Blackheath", "MAPTEXT": "Blackheath", "ANG": 0.000000, "L20": "Y", "GRAPHIC_ID": "RLP0000992", "MI_STYLE": null, "MI_PRINX": 222.000000 }, "geometry": { "type": "Point", "coordinates": [ 0.009959105457306, 51.464984580534072 ] } },
{ "type": "Feature", "properties": { "CODE": "22.23", "NAME": "Bexleyheath", "MAPTEXT": "Bexleyheath", "ANG": 0.000000, "L20": "Y", "GRAPHIC_ID": "RLP0000363", "MI_STYLE": null, "MI_PRINX": 223.000000 }, "geometry": { "type": "Point", "coordinates": [ 0.134521851655675, 51.462789904025385 ] } },
{ "type": "Feature", "properties": { "CODE": "22.23", "NAME": "Nunhead", "MAPTEXT": "Nunhead", "ANG": 0.000000, "L20": "Y", "GRAPHIC_ID": "RLP0000739", "MI_STYLE": null, "MI_PRINX": 224.000000 }, "geometry": { "type": "Point", "coordinates": [ -0.05129487169923, 51.466200078579682 ] } },
{ "type": "Feature", "properties": { "CODE": "22.23", "NAME": "Welling", "MAPTEXT": "Welling", "ANG": 0.000000, "L20": "Y", "GRAPHIC_ID": "RLP0000743", "MI_STYLE": null, "MI_PRINX": 225.000000 }, "geometry": { "type": "Point", "coordinates": [ 0.103217454264025, 51.464063629091171 ] } },
{ "type": "Feature", "properties": { "CODE": "22.23", "NAME": "Denmark Hill", "MAPTEXT": "Denmark Hill", "ANG": 0.000000, "L20": "Y", "GRAPHIC_ID": "RLP0000728", "MI_STYLE": null, "MI_PRINX": 226.000000 }, "geometry": { "type": "Point", "coordinates": [ -0.087878373831081, 51.467538819713219 ] } },
{ "type": "Feature", "properties": { "CODE": "22.23", "NAME": "Barnes Bridge", "MAPTEXT": "Barnes Bridge", "ANG": 0.000000, "L20": "Y", "GRAPHIC_ID": "RLP0000721", "MI_STYLE": null, "MI_PRINX": 227.000000 }, "geometry": { "type": "Point", "coordinates": [ -0.251034578731799, 51.471051813375439 ] } },
{ "type": "Feature", "properties": { "CODE": "22.23", "NAME": "Wandsworth Road", "MAPTEXT": "Wandsworth Road", "ANG": 0.000000, "L20": "Y", "GRAPHIC_ID": "RLP0000724", "MI_STYLE": null, "MI_PRINX": 228.000000 }, "geometry": { "type": "Point", "coordinates": [ -0.137164294311553, 51.469374203586142 ] } },
{ "type": "Feature", "properties": { "CODE": "22.23", "NAME": "Barnehurst", "MAPTEXT": "Barnehurst", "ANG": 0.000000, "L20": "Y", "GRAPHIC_ID": "RLP0000366", "MI_STYLE": null, "MI_PRINX": 229.000000 }, "geometry": { "type": "Point", "coordinates": [ 0.161199022755471, 51.46429588983375 ] } },
{ "type": "Feature", "properties": { "CODE": "22.23", "NAME": "St. John's", "MAPTEXT": "St. John's", "ANG": 0.000000, "L20": "Y", "GRAPHIC_ID": "RLP0000928", "MI_STYLE": null, "MI_PRINX": 230.000000 }, "geometry": { "type": "Point", "coordinates": [ -0.021141111822084, 51.468360834896956 ] } },
{ "type": "Feature", "properties": { "CODE": "22.23", "NAME": "Peckham Rye", "MAPTEXT": "Peckham Rye", "ANG": 0.000000, "L20": "Y", "GRAPHIC_ID": "RLP0000341", "MI_STYLE": null, "MI_PRINX": 231.000000 }, "geometry": { "type": "Point", "coordinates": [ -0.067744999396293, 51.46936248319691 ] } },
{ "type": "Feature", "properties": { "CODE": "22.23", "NAME": "Tilbury Town", "MAPTEXT": "Tilbury Town", "ANG": 0.000000, "L20": "Y", "GRAPHIC_ID": "RLP0000367", "MI_STYLE": null, "MI_PRINX": 232.000000 }, "geometry": { "type": "Point", "coordinates": [ 0.355335385490209, 51.461714527385141 ] } },
{ "type": "Feature", "properties": { "CODE": "22.23", "NAME": "Isleworth", "MAPTEXT": "Isleworth", "ANG": 0.000000, "L20": "Y", "GRAPHIC_ID": "RLP0000301", "MI_STYLE": null, "MI_PRINX": 233.000000 }, "geometry": { "type": "Point", "coordinates": [ -0.335624132378271, 51.474203141054801 ] } },
{ "type": "Feature", "properties": { "CODE": "22.23", "NAME": "Slade Green", "MAPTEXT": "Slade Green", "ANG": 0.000000, "L20": "Y", "GRAPHIC_ID": "RLP0000365", "MI_STYLE": null, "MI_PRINX": 234.000000 }, "geometry": { "type": "Point", "coordinates": [ 0.191568183591803, 51.46709293887379 ] } },
{ "type": "Feature", "properties": { "CODE": "22.23", "NAME": "Queenstown Road (Battersea)", "MAPTEXT": "Queenstown Road (Battersea)", "ANG": 0.000000, "L20": "Y", "GRAPHIC_ID": "RLP0000327", "MI_STYLE": null, "MI_PRINX": 235.000000 }, "geometry": { "type": "Point", "coordinates": [ -0.145599220768042, 51.474136229671373 ] } },
{ "type": "Feature", "properties": { "CODE": "22.23", "NAME": "Queens Road Peckham", "MAPTEXT": "Queens Road Peckham", "ANG": 0.000000, "L20": "Y", "GRAPHIC_ID": "RLP0000353", "MI_STYLE": null, "MI_PRINX": 236.000000 }, "geometry": { "type": "Point", "coordinates": [ -0.055914230337404, 51.473095484015673 ] } },
{ "type": "Feature", "properties": { "CODE": "22.23", "NAME": "Datchet", "MAPTEXT": "Datchet", "ANG": 0.000000, "L20": "Y", "GRAPHIC_ID": "RLP0000287", "MI_STYLE": null, "MI_PRINX": 237.000000 }, "geometry": { "type": "Point", "coordinates": [ -0.578391106206291, 51.482263715066843 ] } },
{ "type": "Feature", "properties": { "CODE": "22.23", "NAME": "New Cross Gate", "MAPTEXT": "New Cross Gate", "ANG": 0.000000, "L20": "Y", "GRAPHIC_ID": "RLP0000352", "MI_STYLE": null, "MI_PRINX": 238.000000 }, "geometry": { "type": "Point", "coordinates": [ -0.0388355009698, 51.474518361775822 ] } },
{ "type": "Feature", "properties": { "CODE": "22.23", "NAME": "Windsor & Eton Central", "MAPTEXT": "Windsor & Eton Central", "ANG": 0.000000, "L20": "Y", "GRAPHIC_ID": "RLP0000288", "MI_STYLE": null, "MI_PRINX": 239.000000 }, "geometry": { "type": "Point", "coordinates": [ -0.609475438443035, 51.482687438197203 ] } },
{ "type": "Feature", "properties": { "CODE": "22.23", "NAME": "Battersea Park", "MAPTEXT": "Battersea Park", "ANG": 0.000000, "L20": "Y", "GRAPHIC_ID": "RLP0000977", "MI_STYLE": null, "MI_PRINX": 240.000000 }, "geometry": { "type": "Point", "coordinates": [ -0.146107543175464, 51.476641594310415 ] } },
{ "type": "Feature", "properties": { "CODE": "22.23", "NAME": "New Cross", "MAPTEXT": "New Cross", "ANG": 0.000000, "L20": "Y", "GRAPHIC_ID": "RLP0000737", "MI_STYLE": null, "MI_PRINX": 241.000000 }, "geometry": { "type": "Point", "coordinates": [ -0.031231574425007, 51.475437643510666 ] } },
{ "type": "Feature", "properties": { "CODE": "22.23", "NAME": "Syon Lane", "MAPTEXT": "Syon Lane", "ANG": 0.000000, "L20": "Y", "GRAPHIC_ID": "RLP0000300", "MI_STYLE": null, "MI_PRINX": 242.000000 }, "geometry": { "type": "Point", "coordinates": [ -0.323434669212794, 51.480934456513346 ] } },
{ "type": "Feature", "properties": { "CODE": "22.23", "NAME": "Chiswick", "MAPTEXT": "Chiswick", "ANG": 0.000000, "L20": "Y", "GRAPHIC_ID": "RLP0000307", "MI_STYLE": null, "MI_PRINX": 243.000000 }, "geometry": { "type": "Point", "coordinates": [ -0.266677176533801, 51.480563953222877 ] } },
{ "type": "Feature", "properties": { "CODE": "22.23", "NAME": "Windsor & Eton Riverside", "MAPTEXT": "Windsor & Eton Riverside", "ANG": 0.000000, "L20": "Y", "GRAPHIC_ID": "RLP0000286", "MI_STYLE": null, "MI_PRINX": 244.000000 }, "geometry": { "type": "Point", "coordinates": [ -0.604814412406955, 51.485128201204212 ] } },
{ "type": "Feature", "properties": { "CODE": "22.23", "NAME": "Greenwich", "MAPTEXT": "Greenwich", "ANG": 0.000000, "L20": "Y", "GRAPHIC_ID": "RLP0000735", "MI_STYLE": null, "MI_PRINX": 245.000000 }, "geometry": { "type": "Point", "coordinates": [ -0.012008985228195, 51.477547094906555 ] } },
{ "type": "Feature", "properties": { "CODE": "22.23", "NAME": "Deptford", "MAPTEXT": "Deptford", "ANG": 0.000000, "L20": "Y", "GRAPHIC_ID": "RLP0000926", "MI_STYLE": null, "MI_PRINX": 246.000000 }, "geometry": { "type": "Point", "coordinates": [ -0.025297249435804, 51.478189601214545 ] } },
{ "type": "Feature", "properties": { "CODE": "22.23", "NAME": "Grays", "MAPTEXT": "Grays", "ANG": 0.000000, "L20": "Y", "GRAPHIC_ID": "RLP0000746", "MI_STYLE": null, "MI_PRINX": 247.000000 }, "geometry": { "type": "Point", "coordinates": [ 0.323045775805994, 51.475553695114009 ] } },
{ "type": "Feature", "properties": { "CODE": "22.23", "NAME": "Maze Hill", "MAPTEXT": "Maze Hill", "ANG": 0.000000, "L20": "Y", "GRAPHIC_ID": "RLP0000733", "MI_STYLE": null, "MI_PRINX": 248.000000 }, "geometry": { "type": "Point", "coordinates": [ 0.00462601792097, 51.482007331576874 ] } },
{ "type": "Feature", "properties": { "CODE": "22.23", "NAME": "Brentford", "MAPTEXT": "Brentford", "ANG": 0.000000, "L20": "Y", "GRAPHIC_ID": "RLP0000714", "MI_STYLE": null, "MI_PRINX": 249.000000 }, "geometry": { "type": "Point", "coordinates": [ -0.30819119816495, 51.486990043962948 ] } },
{ "type": "Feature", "properties": { "CODE": "22.23", "NAME": "Vauxhall", "MAPTEXT": "Vauxhall", "ANG": 0.000000, "L20": "Y", "GRAPHIC_ID": "RLP0000338", "MI_STYLE": null, "MI_PRINX": 250.000000 }, "geometry": { "type": "Point", "coordinates": [ -0.121501054824198, 51.485221977560244 ] } },
{ "type": "Feature", "properties": { "CODE": "22.23", "NAME": "Westcombe Park", "MAPTEXT": "Westcombe Park", "ANG": 0.000000, "L20": "Y", "GRAPHIC_ID": "RLP0000358", "MI_STYLE": null, "MI_PRINX": 251.000000 }, "geometry": { "type": "Point", "coordinates": [ 0.019938432534797, 51.483543017932895 ] } },
{ "type": "Feature", "properties": { "CODE": "22.23", "NAME": "Erith", "MAPTEXT": "Erith", "ANG": 0.000000, "L20": "Y", "GRAPHIC_ID": "RLP0000364", "MI_STYLE": null, "MI_PRINX": 252.000000 }, "geometry": { "type": "Point", "coordinates": [ 0.176212741786057, 51.481082231047573 ] } },
{ "type": "Feature", "properties": { "CODE": "22.23", "NAME": "Kew Bridge", "MAPTEXT": "Kew Bridge", "ANG": 0.000000, "L20": "Y", "GRAPHIC_ID": "RLP0000299", "MI_STYLE": null, "MI_PRINX": 253.000000 }, "geometry": { "type": "Point", "coordinates": [ -0.286207675161054, 51.488927371263017 ] } },
{ "type": "Feature", "properties": { "CODE": "22.23", "NAME": "Purfleet", "MAPTEXT": "Purfleet", "ANG": 0.000000, "L20": "Y", "GRAPHIC_ID": "RLP0000745", "MI_STYLE": null, "MI_PRINX": 254.000000 },