{
"type": "FeatureCollection",
"crs": { "type": "name", "properties": { "name": "urn:ogc:def:crs:OGC:1.3:CRS84" } },
                                                                                
"features": [
{ "type": "Feature", "properties": { "CODE": "22.25", "NAME": "Lewisham", "MAPTEXT": "Lewisham", "ANG": 0.000000, "L20": "Y", "GRAPHIC_ID": "RLP0000582", "MI_STYLE": "Symbol (\"DLR-Symbol6.bmp\",0,12,0)", "MI_PRINX": 1.000000 }, "geometry": { "type": "Point", "coordinates": [ -0.011604553484432, 51.464119390866571 ] } },
{ "type": "Feature", "properties": { "CODE": "22.25", "NAME": "Elverson Road", "MAPTEXT": "Elverson Road", "ANG": 0.000000, "L20": "Y", "GRAPHIC_ID": "RLP0000738", "MI_STYLE": "Symbol (\"DLR-Symbol6.bmp\",0,12,0)", "MI_PRINX": 2.000000 }, "geometry": { "type": "Point", "coordinates": [ -0.015119571517494, 51.467976213559503 ] } },
{ "type": "Feature", "properties": { "CODE": "22.25", "NAME": "Deptford Bridge", "MAPTEXT": "Deptford Bridge", "ANG": 0.000000, "L20": "Y", "GRAPHIC_ID": "RLP0000927", "MI_STYLE": "Symbol (\"DLR-Symbol6.bmp\",0,12,0)", "MI_PRINX": 3.000000 }, "geometry": { "type": "Point", "coordinates": [ -0.021002192172209, 51.473631382216674 ] } },
{ "type": "Feature", "properties": { "CODE": "22.25", "NAME": "Greenwich", "MAPTEXT": "Greenwich", "ANG": 0.000000, "L20": "Y", "GRAPHIC_ID": "RLP0000736", "MI_STYLE": "Symbol (\"DLR-Symbol6.bmp\",0,12,0)", "MI_PRINX": 4.000000 }, "geometry": { "type": "Point", "coordinates": [ -0.014003426644656, 51.477216075204659 ] } },
{ "type": "Feature", "properties": { "CODE": "22.25", "NAME": "Cutty Sark for Maritime Greenwich", "MAPTEXT": "Cutty Sark", "ANG": 0.000000, "L20": "Y", "GRAPHIC_ID": "RLP0000734", "MI_STYLE": "Symbol (\"DLR-Symbol6.bmp\",0,12,0)", "MI_PRINX": 5.000000 }, "geometry": { "type": "Point", "coordinates": [ -0.009252308747457, 51.48104180540836 ] } },
{ "type": "Feature", "properties": { "CODE": "22.25", "NAME": "Island Gardens", "MAPTEXT": "Island Gardens", "ANG": 0.000000, "L20": "Y", "GRAPHIC_ID": "RLP0000996", "MI_STYLE": "Symbol (\"DLR-Symbol6.bmp\",0,12,0)", "MI_PRINX": 6.000000 }, "geometry": { "type": "Point", "coordinates": [ -0.009245276474567, 51.487330011080154 ] } },
{ "type": "Feature", "properties": { "CODE": "22.25", "NAME": "Mudchute", "MAPTEXT": "Mudchute", "ANG": 0.000000, "L20": "Y", "GRAPHIC_ID": "RLP0000731", "MI_STYLE": "Symbol (\"DLR-Symbol6.bmp\",0,12,0)", "MI_PRINX": 7.000000 }, "geometry": { "type": "Point", "coordinates": [ -0.013524466590562, 51.49048466574024 ] } },
{ "type": "Feature", "properties": { "CODE": "22.25", "NAME": "Woolwich Arsenal", "MAPTEXT": "Woolwich Arsenal", "ANG": 0.000000, "L20": "Y", "GRAPHIC_ID": "RLP0001052", "MI_STYLE": "Symbol (\"DLR-Symbol6.bmp\",0,12,0)", "MI_PRINX": 8.000000 }, "geometry": { "type": "Point", "coordinates": [ 0.070599929998194, 51.489450327764231 ] } },
{ "type": "Feature", "properties": { "CODE": "22.25", "NAME": "Crossharbour", "MAPTEXT": "Crossharbour", "ANG": 0.000000, "L20": "Y", "GRAPHIC_ID": "RLP0000730", "MI_STYLE": "Symbol (\"DLR-Symbol6.bmp\",0,12,0)", "MI_PRINX": 9.000000 }, "geometry": { "type": "Point", "coordinates": [ -0.01311840050832, 51.495046201240683 ] } },
{ "type": "Feature", "properties": { "CODE": "22.25", "NAME": "South Quay", "MAPTEXT": "South Quay", "ANG": 0.000000, "L20": "Y", "GRAPHIC_ID": "RLP0000729", "MI_STYLE": "Symbol (\"DLR-Symbol6.bmp\",0,12,0)", "MI_PRINX": 10.000000 }, "geometry": { "type": "Point", "coordinates": [ -0.015075023889069, 51.499173969844804 ] } },
{ "type": "Feature", "properties": { "CODE": "22.25", "NAME": "Pontoon Dock", "MAPTEXT": "Pontoon Dock", "ANG": 0.000000, "L20": "Y", "GRAPHIC_ID": "RLP0000983", "MI_STYLE": "Symbol (\"DLR-Symbol6.bmp\",0,12,0)", "MI_PRINX": 11.000000 }, "geometry": { "type": "Point", "coordinates": [ 0.033342811560546, 51.501457625861917 ] } },
{ "type": "Feature", "properties": { "CODE": "22.25", "NAME": "Heron Quays", "MAPTEXT": "Heron Quays", "ANG": 0.000000, "L20": "Y", "GRAPHIC_ID": "RLP0000705", "MI_STYLE": "Symbol (\"DLR-Symbol6.bmp\",0,12,0)", "MI_PRINX": 12.000000 }, "geometry": { "type": "Point", "coordinates": [ -0.020113804164709, 51.502569121964825 ] } },
{ "type": "Feature", "properties": { "CODE": "22.25", "NAME": "King George V", "MAPTEXT": "King George V", "ANG": 0.000000, "L20": "Y", "GRAPHIC_ID": "RLP0000981", "MI_STYLE": "Symbol (\"DLR-Symbol6.bmp\",0,12,0)", "MI_PRINX": 13.000000 }, "geometry": { "type": "Point", "coordinates": [ 0.064106924236568, 51.501329389859791 ] } },
{ "type": "Feature", "properties": { "CODE": "22.25", "NAME": "West Silvertown", "MAPTEXT": "West Silvertown", "ANG": 0.000000, "L20": "Y", "GRAPHIC_ID": "RLP0000982", "MI_STYLE": "Symbol (\"DLR-Symbol6.bmp\",0,12,0)", "MI_PRINX": 14.000000 }, "geometry": { "type": "Point", "coordinates": [ 0.023973640692046, 51.502050154467675 ] } },
{ "type": "Feature", "properties": { "CODE": "22.25", "NAME": "London City Airport", "MAPTEXT": "London City Airport", "ANG": 0.000000, "L20": "Y", "GRAPHIC_ID": "RLP0000984", "MI_STYLE": "Symbol (\"DLR-Symbol6.bmp\",0,12,0)", "MI_PRINX": 15.000000 }, "geometry": { "type": "Point", "coordinates": [ 0.049698768492421, 51.502948262583111 ] } },
{ "type": "Feature", "properties": { "CODE": "22.25", "NAME": "Canary Wharf", "MAPTEXT": "Canary Wharf", "ANG": 0.000000, "L20": "Y", "GRAPHIC_ID": "RLP0000704", "MI_STYLE": "Symbol (\"DLR-Symbol6.bmp\",0,12,0)", "MI_PRINX": 16.000000 }, "geometry": { "type": "Point", "coordinates": [ -0.019590792690394, 51.504321089786089 ] } },
{ "type": "Feature", "properties": { "CODE": "22.25", "NAME": "West India Quay", "MAPTEXT": "West India Quay", "ANG": 0.000000, "L20": "Y", "GRAPHIC_ID": "RLP0000703", "MI_STYLE": "Symbol (\"DLR-Symbol6.bmp\",0,12,0)", "MI_PRINX": 17.000000 }, "geometry": { "type": "Point", "coordinates": [ -0.019051271554777, 51.506258241670459 ] } },
{ "type": "Feature", "properties": { "CODE": "22.25", "NAME": "Poplar", "MAPTEXT": "Poplar", "ANG": 0.000000, "L20": "Y", "GRAPHIC_ID": "RLP0001001", "MI_STYLE": "Symbol (\"DLR-Symbol6.bmp\",0,12,0)", "MI_PRINX": 18.000000 }, "geometry": { "type": "Point", "coordinates": [ -0.015853623951551, 51.506976253998481 ] } },
{ "type": "Feature", "properties": { "CODE": "22.25", "NAME": "Blackwall", "MAPTEXT": "Blackwall", "ANG": 0.000000, "L20": "Y", "GRAPHIC_ID": "RLP0000915", "MI_STYLE": "Symbol (\"DLR-Symbol6.bmp\",0,12,0)", "MI_PRINX": 19.000000 }, "geometry": { "type": "Point", "coordinates": [ -0.005226612900033, 51.507233435585086 ] } },
{ "type": "Feature", "properties": { "CODE": "22.25", "NAME": "Westferry", "MAPTEXT": "Westferry", "ANG": 0.000000, "L20": "Y", "GRAPHIC_ID": "RLP0000702", "MI_STYLE": "Symbol (\"DLR-Symbol6.bmp\",0,12,0)", "MI_PRINX": 20.000000 }, "geometry": { "type": "Point", "coordinates": [ -0.025563906986575, 51.508845104359189 ] } },
{ "type": "Feature", "properties": { "CODE": "22.25", "NAME": "Tower Gateway", "MAPTEXT": "Tower Gateway", "ANG": 0.000000, "L20": "Y", "GRAPHIC_ID": "RLP0000255", "MI_STYLE": "Symbol (\"DLR-Symbol6.bmp\",0,12,0)", "MI_PRINX": 21.000000 }, "geometry": { "type": "Point", "coordinates": [ -0.072921945973932, 51.509833305894773 ] } },
{ "type": "Feature", "properties": { "CODE": "22.25", "NAME": "Royal Albert", "MAPTEXT": "Royal Albert", "ANG": 0.000000, "L20": "Y", "GRAPHIC_ID": "RLP0000985", "MI_STYLE": "Symbol (\"DLR-Symbol6.bmp\",0,12,0)", "MI_PRINX": 22.000000 }, "geometry": { "type": "Point", "coordinates": [ 0.047768597142319, 51.507809075814095 ] } },
{ "type": "Feature", "properties": { "CODE": "22.25", "NAME": "East India", "MAPTEXT": "East India", "ANG": 0.000000, "L20": "Y", "GRAPHIC_ID": "RLP0000701", "MI_STYLE": "Symbol (\"DLR-Symbol6.bmp\",0,12,0)", "MI_PRINX": 23.000000 }, "geometry": { "type": "Point", "coordinates": [ -0.000774719885546, 51.508710578310556 ] } },
{ "type": "Feature", "properties": { "CODE": "22.25", "NAME": "Royal Victoria", "MAPTEXT": "Royal Victoria", "ANG": 0.000000, "L20": "Y", "GRAPHIC_ID": "RLP0000279", "MI_STYLE": "Symbol (\"DLR-Symbol6.bmp\",0,12,0)", "MI_PRINX": 24.000000 }, "geometry": { "type": "Point", "coordinates": [ 0.01983316055067, 51.508535285455743 ] } },
{ "type": "Feature", "properties": { "CODE": "22.25", "NAME": "Cyprus", "MAPTEXT": "Cyprus", "ANG": 0.000000, "L20": "Y", "GRAPHIC_ID": "RLP0000276", "MI_STYLE": "Symbol (\"DLR-Symbol6.bmp\",0,12,0)", "MI_PRINX": 25.000000 }, "geometry": { "type": "Point", "coordinates": [ 0.065291202222748, 51.507762957940486 ] } },
{ "type": "Feature", "properties": { "CODE": "22.25", "NAME": "Beckton Park", "MAPTEXT": "Beckton Park", "ANG": 0.000000, "L20": "Y", "GRAPHIC_ID": "RLP0000275", "MI_STYLE": "Symbol (\"DLR-Symbol6.bmp\",0,12,0)", "MI_PRINX": 26.000000 }, "geometry": { "type": "Point", "coordinates": [ 0.056321333558442, 51.508029185392708 ] } },
{ "type": "Feature", "properties": { "CODE": "22.25", "NAME": "Prince Regent", "MAPTEXT": "Prince Regent", "ANG": 0.000000, "L20": "Y", "GRAPHIC_ID": "RLP0000274", "MI_STYLE": "Symbol (\"DLR-Symbol6.bmp\",0,12,0)", "MI_PRINX": 27.000000 }, "geometry": { "type": "Point", "coordinates": [ 0.035585196926183, 51.508525261158745 ] } },
{ "type": "Feature", "properties": { "CODE": "22.25", "NAME": "Custom House for ExCeL", "MAPTEXT": "Custom House for ExCeL", "ANG": 0.000000, "L20": "Y", "GRAPHIC_ID": "RLP0000278", "MI_STYLE": "Symbol (\"DLR-Symbol6.bmp\",0,12,0)", "MI_PRINX": 28.000000 }, "geometry": { "type": "Point", "coordinates": [ 0.02759728356929, 51.508857556092906 ] } },
{ "type": "Feature", "properties": { "CODE": "22.25", "NAME": "Gallions Reach", "MAPTEXT": "Gallions Reach", "ANG": 0.000000, "L20": "Y", "GRAPHIC_ID": "RLP0000708", "MI_STYLE": "Symbol (\"DLR-Symbol6.bmp\",0,12,0)", "MI_PRINX": 29.000000 }, "geometry": { "type": "Point", "coordinates": [ 0.073055092397396, 51.508399396481977 ] } },
{ "type": "Feature", "properties": { "CODE": "22.25", "NAME": "All Saints", "MAPTEXT": "All Saints", "ANG": 0.000000, "L20": "Y", "GRAPHIC_ID": "RLP0000914", "MI_STYLE": "Symbol (\"DLR-Symbol6.bmp\",0,12,0)", "MI_PRINX": 30.000000 }, "geometry": { "type": "Point", "coordinates": [ -0.011656347843151, 51.509960449459768 ] } },
{ "type": "Feature", "properties": { "CODE": "22.25", "NAME": "Shadwell", "MAPTEXT": null, "ANG": 0.000000, "L20": "Y", "GRAPHIC_ID": "RLP0000694", "MI_STYLE": "Symbol (\"DLR-Symbol6.bmp\",0,12,0)", "MI_PRINX": 31.000000 }, "geometry": { "type": "Point", "coordinates": [ -0.054632062446704, 51.510970748085889 ] } },
{ "type": "Feature", "properties": { "CODE": "22.25", "NAME": "Limehouse", "MAPTEXT": null, "ANG": 0.000000, "L20": "Y", "GRAPHIC_ID": "RLP0000913", "MI_STYLE": "Symbol (\"DLR-Symbol6.bmp\",0,12,0)", "MI_PRINX": 32.000000 }, "geometry": { "type": "Point", "coordinates": [ -0.038239520341864, 51.511609377218946 ] } },
{ "type": "Feature", "properties": { "CODE": "22.25", "NAME": "Bank", "MAPTEXT": null, "ANG": 0.000000, "L20": "Y", "GRAPHIC_ID": "RLP0000250", "MI_STYLE": "Symbol (\"DLR-Symbol6.bmp\",0,12,0)", "MI_PRINX": 33.000000 }, "geometry": { "type": "Point", "coordinates": [ -0.08669319873251, 51.512465217643573 ] } },
{ "type": "Feature", "properties": { "CODE": "22.25", "NAME": "Canning Town", "MAPTEXT": null, "ANG": 0.000000, "L20": "Y", "GRAPHIC_ID": "RLP0000700", "MI_STYLE": "Symbol (\"DLR-Symbol6.bmp\",0,12,0)", "MI_PRINX": 34.000000 }, "geometry": { "type": "Point", "coordinates": [ 0.009189312832626, 51.513412848795674 ] } },
{ "type": "Feature", "properties": { "CODE": "22.25", "NAME": "Langdon Park", "MAPTEXT": "Langdon Pk.", "ANG": 0.000000, "L20": "Y", "GRAPHIC_ID": "RLP0001020", "MI_STYLE": "Symbol (\"DLR-Symbol6.bmp\",0,12,0)", "MI_PRINX": 35.000000 }, "geometry": { "type": "Point", "coordinates": [ -0.012794568896942, 51.514516857944386 ] } },
{ "type": "Feature", "properties": { "CODE": "22.25", "NAME": "Beckton", "MAPTEXT": "Beckton", "ANG": 0.000000, "L20": "Y", "GRAPHIC_ID": "RLP0000580", "MI_STYLE": "Symbol (\"DLR-Symbol6.bmp\",0,12,0)", "MI_PRINX": 36.000000 }, "geometry": { "type": "Point", "coordinates": [ 0.062699316196403, 51.513660284845187 ] } },
{ "type": "Feature", "properties": { "CODE": "22.25", "NAME": "Devons Road", "MAPTEXT": "Devons Road", "ANG": 0.000000, "L20": "Y", "GRAPHIC_ID": "RLP0000268", "MI_STYLE": "Symbol (\"DLR-Symbol6.bmp\",0,12,0)", "MI_PRINX": 37.000000 }, "geometry": { "type": "Point", "coordinates": [ -0.015934829609314, 51.521534364285316 ] } },
{ "type": "Feature", "properties": { "CODE": "22.25", "NAME": "Bow Church", "MAPTEXT": "Bow Church", "ANG": 0.000000, "L20": "Y", "GRAPHIC_ID": "RLP0000698", "MI_STYLE": "Symbol (\"DLR-Symbol6.bmp\",0,12,0)", "MI_PRINX": 38.000000 }, "geometry": { "type": "Point", "coordinates": [ -0.019357794624921, 51.526570553568185 ] } },
{ "type": "Feature", "properties": { "CODE": "22.25", "NAME": "Pudding Mill Lane", "MAPTEXT": "Pudding Mill Lane", "ANG": 0.000000, "L20": "Y", "GRAPHIC_ID": "RLP0000263", "MI_STYLE": "Symbol (\"DLR-Symbol6.bmp\",0,12,0)", "MI_PRINX": 39.000000 }, "geometry": { "type": "Point", "coordinates": [ -0.012510803665644, 51.533566413480209 ] } },
{ "type": "Feature", "properties": { "CODE": "22.25", "NAME": "Stratford", "MAPTEXT": null, "ANG": 0.000000, "L20": "Y", "GRAPHIC_ID": "RLP0000978", "MI_STYLE": "Symbol (\"DLR-Symbol6.bmp\",0,12,0)", "MI_PRINX": 40.000000 }, "geometry": { "type": "Point", "coordinates": [ -0.002116586015649, 51.5411903376813 ] } }
]
}
