{
"type": "FeatureCollection",
"crs": { "type": "name", "properties": { "name": "urn:ogc:def:crs:OGC:1.3:CRS84" } },
                                                                                
"features": [
{ "type": "Feature", "properties": { "TYPE": "Children Centre", "NAME": "Ann Tayler Children's Centre", "HOUSE_NO": "1-13", "ADDRESS1": "Triangle Road", "ADDRESS2": null, "TOWN": "London", "POSTCODE": "E8 3RP", "EASTING": 534695.000000, "NORTHING": 183924.000000, "UPRN": 10008237754.000000, "MI_STYLE": null, "MI_PRINX": 1.000000 }, "geometry": { "type": "Point", "coordinates": [ -0.059250769140362, 51.538154584115873 ] } },
{ "type": "Feature", "properties": { "TYPE": "Children Centre", "NAME": "Clapton Park Children's Centre", "HOUSE_NO": "161", "ADDRESS1": "Daubeney Road", "ADDRESS2": null, "TOWN": "London", "POSTCODE": "E5 0EP", "EASTING": 536222.000000, "NORTHING": 185916.000000, "UPRN": 200002790660.000000, "MI_STYLE": null, "MI_PRINX": 2.000000 }, "geometry": { "type": "Point", "coordinates": [ -0.036476617036778, 51.555688818658751 ] } },
{ "type": "Feature", "properties": { "TYPE": "Children Centre", "NAME": "Comet Nursery School and Children's Centre", "HOUSE_NO": "20", "ADDRESS1": "Halcomb Street", "ADDRESS2": null, "TOWN": "London", "POSTCODE": "N1 5RF", "EASTING": 533227.000000, "NORTHING": 183661.000000, "UPRN": 100023135385.000000, "MI_STYLE": null, "MI_PRINX": 4.000000 }, "geometry": { "type": "Point", "coordinates": [ -0.08050418723046, 51.536139192718466 ] } },
{ "type": "Feature", "properties": { "TYPE": "Children Centre", "NAME": "Daubeney Children's Centre", "HOUSE_NO": "161", "ADDRESS1": "Daubeney Road", "ADDRESS2": null, "TOWN": "London", "POSTCODE": "E5 0EG", "EASTING": 536126.000000, "NORTHING": 185583.000000, "UPRN": 100023545426.000000, "MI_STYLE": null, "MI_PRINX": 5.000000 }, "geometry": { "type": "Point", "coordinates": [ -0.03798921859707, 51.55271955536562 ] } },
{ "type": "Feature", "properties": { "TYPE": "Children Centre", "NAME": "Fernbank Children's Centre", "HOUSE_NO": "1a", "ADDRESS1": "Fountayne Road", "ADDRESS2": null, "TOWN": "London", "POSTCODE": "N16 7EA", "EASTING": 534257.000000, "NORTHING": 186895.000000, "UPRN": 10008300047.000000, "MI_STYLE": null, "MI_PRINX": 6.000000 }, "geometry": { "type": "Point", "coordinates": [ -0.064429416390601, 51.564956986850611 ] } },
{ "type": "Feature", "properties": { "TYPE": "Children Centre", "NAME": "Gainsborough Satellite Children's Centre", "HOUSE_NO": null, "ADDRESS1": "Berkshire Road", "ADDRESS2": null, "TOWN": "London", "POSTCODE": "E9 5NB", "EASTING": 536968.000000, "NORTHING": 184848.000000, "UPRN": 100021026159.000000, "MI_STYLE": null, "MI_PRINX": 7.000000 }, "geometry": { "type": "Point", "coordinates": [ -0.026138291659606, 51.545911215628124 ] } },
{ "type": "Feature", "properties": { "TYPE": "Children Centre", "NAME": "Hillside Children's Centre", "HOUSE_NO": null, "ADDRESS1": "Leatherhead Close", "ADDRESS2": "Holmleigh Road", "TOWN": "London", "POSTCODE": "N16 5QR", "EASTING": 533528.000000, "NORTHING": 187347.000000, "UPRN": 10008242309.000000, "MI_STYLE": null, "MI_PRINX": 8.000000 }, "geometry": { "type": "Point", "coordinates": [ -0.074768976875662, 51.569191714142214 ] } },
{ "type": "Feature", "properties": { "TYPE": "Children Centre", "NAME": "Linden Children's Centre", "HOUSE_NO": "86-94", "ADDRESS1": "Rectory Road", "ADDRESS2": null, "TOWN": "London", "POSTCODE": "N16 7SH", "EASTING": 533937.000000, "NORTHING": 186230.000000, "UPRN": 10008300545.000000, "MI_STYLE": null, "MI_PRINX": 10.000000 }, "geometry": { "type": "Point", "coordinates": [ -0.069296448259957, 51.559057148847124 ] } },
{ "type": "Feature", "properties": { "TYPE": "Children Centre", "NAME": "Lubavitch Children's Centre", "HOUSE_NO": "1", "ADDRESS1": "Northfield Road", "ADDRESS2": null, "TOWN": "London", "POSTCODE": "N16 5RL", "EASTING": 533584.000000, "NORTHING": 187697.000000, "UPRN": 100023156983.000000, "MI_STYLE": null, "MI_PRINX": 11.000000 }, "geometry": { "type": "Point", "coordinates": [ -0.073828513290582, 51.572323655038673 ] } },
{ "type": "Feature", "properties": { "TYPE": "Children Centre", "NAME": "Millfields Children's Centre", "HOUSE_NO": null, "ADDRESS1": "Elmcroft Street", "ADDRESS2": null, "TOWN": "London", "POSTCODE": "E5 0SQ", "EASTING": 535264.000000, "NORTHING": 185888.000000, "UPRN": 10008286865.000000, "MI_STYLE": null, "MI_PRINX": 12.000000 }, "geometry": { "type": "Point", "coordinates": [ -0.050297201064306, 51.555667494840513 ] } },
{ "type": "Feature", "properties": { "TYPE": "Children Centre", "NAME": "Minik Kardes Children's Centre", "HOUSE_NO": "53-55", "ADDRESS1": "Balls Pond Road", "ADDRESS2": null, "TOWN": "London", "POSTCODE": "N1 4BW", "EASTING": 533346.000000, "NORTHING": 184769.000000, "UPRN": 100023134281.000000, "MI_STYLE": null, "MI_PRINX": 14.000000 }, "geometry": { "type": "Point", "coordinates": [ -0.078370168704041, 51.546068015096836 ] } },
{ "type": "Feature", "properties": { "TYPE": "Children Centre", "NAME": "Morningside Children's Centre", "HOUSE_NO": null, "ADDRESS1": "Chatham Place", "ADDRESS2": null, "TOWN": "London", "POSTCODE": "E9 6LL", "EASTING": 535253.000000, "NORTHING": 184862.000000, "UPRN": 100023022301.000000, "MI_STYLE": null, "MI_PRINX": 15.000000 }, "geometry": { "type": "Point", "coordinates": [ -0.050850014925367, 51.546450346710955 ] } },
{ "type": "Feature", "properties": { "TYPE": "Children Centre", "NAME": "Ihsan Children’s Centre (North London Muslim Community Centre)", "HOUSE_NO": "66-68", "ADDRESS1": "Cazenove Road", "ADDRESS2": null, "TOWN": "London", "POSTCODE": "N16 6AA", "EASTING": 533946.000000, "NORTHING": 186890.000000, "UPRN": 100023157760.000000, "MI_STYLE": null, "MI_PRINX": 16.000000 }, "geometry": { "type": "Point", "coordinates": [ -0.068915515537575, 51.564985954917773 ] } },
{ "type": "Feature", "properties": { "TYPE": "Nursery", "NAME": "Pembury Community Nursery", "HOUSE_NO": "15", "ADDRESS1": "Pembury Road", "ADDRESS2": null, "TOWN": "London", "POSTCODE": "E5 8LU", "EASTING": 534624.000000, "NORTHING": 185322.000000, "UPRN": 10008299535.000000, "MI_STYLE": null, "MI_PRINX": 17.000000 }, "geometry": { "type": "Point", "coordinates": [ -0.059739621283247, 51.550734265835423 ] } },
{ "type": "Feature", "properties": { "TYPE": "Children Centre", "NAME": "Tyssen Children's Centre", "HOUSE_NO": null, "ADDRESS1": "Oldhill Street", "ADDRESS2": null, "TOWN": "London", "POSTCODE": "N16 6QA", "EASTING": 534111.000000, "NORTHING": 187372.000000, "UPRN": 10008313961.000000, "MI_STYLE": null, "MI_PRINX": 18.000000 }, "geometry": { "type": "Point", "coordinates": [ -0.066352697109758, 51.569278160819962 ] } },
{ "type": "Feature", "properties": { "TYPE": "Children Centre", "NAME": "Wentworth Nursery School and Children's Centre", "HOUSE_NO": null, "ADDRESS1": "Cassland Road", "ADDRESS2": null, "TOWN": "London", "POSTCODE": "E9 5BY", "EASTING": 535916.000000, "NORTHING": 184524.000000, "UPRN": 100023020639.000000, "MI_STYLE": null, "MI_PRINX": 19.000000 }, "geometry": { "type": "Point", "coordinates": [ -0.041425000940783, 51.543253853671523 ] } },
{ "type": "Feature", "properties": { "TYPE": "Nursery", "NAME": "Wetherell Children's Centre", "HOUSE_NO": null, "ADDRESS1": "Iveagh Close", "ADDRESS2": null, "TOWN": "London", "POSTCODE": "E9 7BW", "EASTING": 535966.000000, "NORTHING": 184005.000000, "UPRN": 10008242409.000000, "MI_STYLE": null, "MI_PRINX": 20.000000 }, "geometry": { "type": "Point", "coordinates": [ -0.040904771643928, 51.538578001999653 ] } },
{ "type": "Feature", "properties": { "TYPE": "Children Centre", "NAME": "Woodberry Down Children's Centre", "HOUSE_NO": null, "ADDRESS1": "Springpark Drive", "ADDRESS2": null, "TOWN": "London", "POSTCODE": "N4 2NP", "EASTING": 532309.000000, "NORTHING": 187344.000000, "UPRN": 100021082864.000000, "MI_STYLE": null, "MI_PRINX": 21.000000 }, "geometry": { "type": "Point", "coordinates": [ -0.092348051888186, 51.569451853751275 ] } },
{ "type": "Feature", "properties": { "TYPE": "College", "NAME": "B6 Sixth Form College", "HOUSE_NO": null, "ADDRESS1": "Brooke House", "ADDRESS2": "Kenninghall Road", "TOWN": "London", "POSTCODE": "E5 8BP", "EASTING": 534804.000000, "NORTHING": 186280.000000, "UPRN": 100021050727.000000, "MI_STYLE": null, "MI_PRINX": 22.000000 }, "geometry": { "type": "Point", "coordinates": [ -0.056778154195947, 51.559300073815443 ] } },
{ "type": "Feature", "properties": { "TYPE": "College", "NAME": "Hackney Community College, Shoreditch", "HOUSE_NO": null, "ADDRESS1": "Shoreditch Campus", "ADDRESS2": "Falkirk Street", "TOWN": "London", "POSTCODE": "N1 6HQ", "EASTING": 533326.000000, "NORTHING": 183062.000000, "UPRN": 100023135466.000000, "MI_STYLE": null, "MI_PRINX": 23.000000 }, "geometry": { "type": "Point", "coordinates": [ -0.07930427095546, 51.530733027961972 ] } },
{ "type": "Feature", "properties": { "TYPE": "Independent", "NAME": "Al-Falah Primary School", "HOUSE_NO": "48", "ADDRESS1": "Kenninghall Road", "ADDRESS2": null, "TOWN": "London", "POSTCODE": "E5 8BY", "EASTING": 534666.000000, "NORTHING": 186148.000000, "UPRN": 100021050639.000000, "MI_STYLE": null, "MI_PRINX": 24.000000 }, "geometry": { "type": "Point", "coordinates": [ -0.058818235857086, 51.558146899114618 ] } },
{ "type": "Feature", "properties": { "TYPE": "Independent", "NAME": "Beis Malka Girls Jewish School", "HOUSE_NO": "93", "ADDRESS1": "Alkham Road", "ADDRESS2": null, "TOWN": "London", "POSTCODE": "N16 6XD", "EASTING": 533811.000000, "NORTHING": 187086.000000, "UPRN": 200002797577.000000, "MI_STYLE": null, "MI_PRINX": 25.000000 }, "geometry": { "type": "Point", "coordinates": [ -0.070787407523151, 51.566779225689196 ] } },
{ "type": "Feature", "properties": { "TYPE": "Independent", "NAME": "Beis Trana Girls' School", "HOUSE_NO": "186", "ADDRESS1": "Upper Clapton Road", "ADDRESS2": null, "TOWN": "London", "POSTCODE": "E5 9DH", "EASTING": 534561.000000, "NORTHING": 187053.000000, "UPRN": 200001493449.000000, "MI_STYLE": null, "MI_PRINX": 26.000000 }, "geometry": { "type": "Point", "coordinates": [ -0.059985853451646, 51.56630437327113 ] } },
{ "type": "Feature", "properties": { "TYPE": "Independent", "NAME": "Bnois Jerusalem School", "HOUSE_NO": "79-81", "ADDRESS1": "Amhurst Park", "ADDRESS2": null, "TOWN": "London", "POSTCODE": "N16 5DL", "EASTING": 533000.000000, "NORTHING": 187930.000000, "UPRN": 100023156025.000000, "MI_STYLE": null, "MI_PRINX": 27.000000 }, "geometry": { "type": "Point", "coordinates": [ -0.082162154757985, 51.574555436125209 ] } },
{ "type": "Feature", "properties": { "TYPE": "Independent", "NAME": "Getters Talmud Torah", "HOUSE_NO": "86", "ADDRESS1": "Amhurst Park", "ADDRESS2": null, "TOWN": "London", "POSTCODE": "N16 5AR", "EASTING": 532915.000000, "NORTHING": 187972.000000, "UPRN": 100023155943.000000, "MI_STYLE": null, "MI_PRINX": 28.000000 }, "geometry": { "type": "Point", "coordinates": [ -0.083372092837805, 51.574952871033176 ] } },
{ "type": "Feature", "properties": { "TYPE": "Primary School", "NAME": "Lubavitch Boys Primary School", "HOUSE_NO": "135", "ADDRESS1": "Clapton Common", "ADDRESS2": null, "TOWN": "London", "POSTCODE": "E5 9AE", "EASTING": 533834.000000, "NORTHING": 187715.000000, "UPRN": 100023006452.000000, "MI_STYLE": null, "MI_PRINX": 29.000000 }, "geometry": { "type": "Point", "coordinates": [ -0.070216481405073, 51.572426126554575 ] } },
{ "type": "Feature", "properties": { "TYPE": "Independent", "NAME": "Lubavitch House School (Junior Boys)", "HOUSE_NO": "135", "ADDRESS1": "Clapton Common", "ADDRESS2": null, "TOWN": "London", "POSTCODE": "E5 9AE", "EASTING": 533834.000000, "NORTHING": 187715.000000, "UPRN": 100023006452.000000, "MI_STYLE": null, "MI_PRINX": 30.000000 }, "geometry": { "type": "Point", "coordinates": [ -0.070216481405073, 51.572426126554575 ] } },
{ "type": "Feature", "properties": { "TYPE": "Secondary School", "NAME": "Lubavitch Senior Girls School", "HOUSE_NO": "107-115", "ADDRESS1": "Stamford Hill", "ADDRESS2": null, "TOWN": "London", "POSTCODE": "N16 5RP", "EASTING": 533621.000000, "NORTHING": 187688.000000, "UPRN": 100023155932.000000, "MI_STYLE": null, "MI_PRINX": 31.000000 }, "geometry": { "type": "Point", "coordinates": [ -0.073298305755662, 51.572234041084954 ] } },
{ "type": "Feature", "properties": { "TYPE": "Independent", "NAME": "Lyceum School", "HOUSE_NO": "6", "ADDRESS1": "Paul Street", "ADDRESS2": null, "TOWN": "London", "POSTCODE": "EC2A 4JH", "EASTING": 533013.000000, "NORTHING": 182106.000000, "UPRN": 10008243027.000000, "MI_STYLE": null, "MI_PRINX": 32.000000 }, "geometry": { "type": "Point", "coordinates": [ -0.084174544818735, 51.5222158236407 ] } },
{ "type": "Feature", "properties": { "TYPE": "Independent", "NAME": "Talmud Torah Machzikei Hadass School", "HOUSE_NO": "96-98", "ADDRESS1": "Clapton Common", "ADDRESS2": null, "TOWN": "London", "POSTCODE": "E5 9AL", "EASTING": 534172.000000, "NORTHING": 187722.000000, "UPRN": 100023006360.000000, "MI_STYLE": null, "MI_PRINX": 33.000000 }, "geometry": { "type": "Point", "coordinates": [ -0.06533948225927, 51.572408838244137 ] } },
{ "type": "Feature", "properties": { "TYPE": "Independent", "NAME": "Mustard School", "HOUSE_NO": null, "ADDRESS1": "Parish Hall", "ADDRESS2": "Nuttall Street", "TOWN": "London", "POSTCODE": "N1 5LR", "EASTING": 533428.000000, "NORTHING": 183482.000000, "UPRN": 100023650958.000000, "MI_STYLE": null, "MI_PRINX": 34.000000 }, "geometry": { "type": "Point", "coordinates": [ -0.077675689639888, 51.534483220701446 ] } },
{ "type": "Feature", "properties": { "TYPE": "Independent", "NAME": "Ohel Blima Rochel D'Bobov Girls School", "HOUSE_NO": "99", "ADDRESS1": "Clapton Common", "ADDRESS2": null, "TOWN": "London", "POSTCODE": "E5 9AB", "EASTING": 534015.000000, "NORTHING": 187659.000000, "UPRN": 100021031847.000000, "MI_STYLE": null, "MI_PRINX": 35.000000 }, "geometry": { "type": "Point", "coordinates": [ -0.067627595630369, 51.571879995159669 ] } },
{ "type": "Feature", "properties": { "TYPE": "Independent", "NAME": "Rosemary Works School", "HOUSE_NO": "1", "ADDRESS1": "Branch Place", "ADDRESS2": null, "TOWN": "London", "POSTCODE": "N1 5PH", "EASTING": 532865.000000, "NORTHING": 183768.000000, "UPRN": 10008293319.000000, "MI_STYLE": null, "MI_PRINX": 36.000000 }, "geometry": { "type": "Point", "coordinates": [ -0.085680191294396, 51.537185969156567 ] } },
{ "type": "Feature", "properties": { "TYPE": "Independent", "NAME": "Talmud Torah Chaim Meirim School", "HOUSE_NO": "26", "ADDRESS1": "Lampard Grove", "ADDRESS2": null, "TOWN": "London", "POSTCODE": "N16 6XB", "EASTING": 533804.000000, "NORTHING": 187128.000000, "UPRN": 10008313948.000000, "MI_STYLE": null, "MI_PRINX": 37.000000 }, "geometry": { "type": "Point", "coordinates": [ -0.070872362543527, 51.567158379784253 ] } },
{ "type": "Feature", "properties": { "TYPE": "Independent", "NAME": "Talmud Torah Toldos Yakov Yosef", "HOUSE_NO": "47", "ADDRESS1": "East Bank", "ADDRESS2": null, "TOWN": "London", "POSTCODE": "N16 5NH", "EASTING": 533324.000000, "NORTHING": 187419.000000, "UPRN": 100023545534.000000, "MI_STYLE": null, "MI_PRINX": 38.000000 }, "geometry": { "type": "Point", "coordinates": [ -0.081774091948377, 51.568341282430282 ] } },
{ "type": "Feature", "properties": { "TYPE": "Independent", "NAME": "Tayyibah School for Girls (Muslim)", "HOUSE_NO": "88", "ADDRESS1": "Filey Avenue", "ADDRESS2": null, "TOWN": "London", "POSTCODE": "N16 6JJ", "EASTING": 534460.000000, "NORTHING": 187173.000000, "UPRN": 100023157951.000000, "MI_STYLE": null, "MI_PRINX": 39.000000 }, "geometry": { "type": "Point", "coordinates": [ -0.061396193292789, 51.56740683714726 ] } },
{ "type": "Feature", "properties": { "TYPE": "Independent", "NAME": "The Lyceum", "HOUSE_NO": "6", "ADDRESS1": "Paul Street", "ADDRESS2": null, "TOWN": "London", "POSTCODE": "EC2A 4JH", "EASTING": 533010.000000, "NORTHING": 182129.000000, "UPRN": 100022933451.000000, "MI_STYLE": null, "MI_PRINX": 40.000000 }, "geometry": { "type": "Point", "coordinates": [ -0.08420910536007, 51.5224231578146 ] } },
{ "type": "Feature", "properties": { "TYPE": "Independent", "NAME": "Yesodey Hatorah Primary School for Girls", "HOUSE_NO": "153", "ADDRESS1": "Stamford Hill", "ADDRESS2": null, "TOWN": "London", "POSTCODE": "N16 5AE", "EASTING": 533575.000000, "NORTHING": 187946.000000, "UPRN": 100023155891.000000, "MI_STYLE": null, "MI_PRINX": 42.000000 }, "geometry": { "type": "Point", "coordinates": [ -0.073863645164423, 51.57456335321438 ] } },
{ "type": "Feature", "properties": { "TYPE": "Nursery", "NAME": "Academic Day Nursery", "HOUSE_NO": "41-47", "ADDRESS1": "Leswin Road", "ADDRESS2": null, "TOWN": "London", "POSTCODE": "N16 7NX", "EASTING": 533659.000000, "NORTHING": 186327.000000, "UPRN": 10008306122.000000, "MI_STYLE": null, "MI_PRINX": 43.000000 }, "geometry": { "type": "Point", "coordinates": [ -0.073267412457626, 51.559994720442816 ] } },
{ "type": "Feature", "properties": { "TYPE": "Nursery", "NAME": "Acorn Nursery", "HOUSE_NO": null, "ADDRESS1": "2 Narford Road", "ADDRESS2": null, "TOWN": "London", "POSTCODE": "E5 8RD", "EASTING": 534298.000000, "NORTHING": 186458.000000, "UPRN": 100023547202.000000, "MI_STYLE": null, "MI_PRINX": 44.000000 }, "geometry": { "type": "Point", "coordinates": [ -0.064005028329642, 51.561020206419911 ] } },
{ "type": "Feature", "properties": { "TYPE": "Nursery", "NAME": "Apple Blossoms Nursery", "HOUSE_NO": "59", "ADDRESS1": "Osbaldeston Road", "ADDRESS2": null, "TOWN": "London", "POSTCODE": "N16 7DL", "EASTING": 534322.000000, "NORTHING": 187376.000000, "UPRN": 100021063214.000000, "MI_STYLE": null, "MI_PRINX": 46.000000 }, "geometry": { "type": "Point", "coordinates": [ -0.063308602126269, 51.569263916761841 ] } },
{ "type": "Feature", "properties": { "TYPE": "Nursery", "NAME": "The Ark Daycare Nursery", "HOUSE_NO": null, "ADDRESS1": "Lea View House", "ADDRESS2": "Springfield", "TOWN": "London", "POSTCODE": "E5 9DX", "EASTING": 534702.000000, "NORTHING": 187278.000000, "UPRN": 10008238957.000000, "MI_STYLE": null, "MI_PRINX": 47.000000 }, "geometry": { "type": "Point", "coordinates": [ -0.05822740301809, 51.568507132338461 ] } },
{ "type": "Feature", "properties": { "TYPE": "Nursery", "NAME": "The Bath House Childrens' Community Centre", "HOUSE_NO": "76", "ADDRESS1": "Shacklewell Lane", "ADDRESS2": null, "TOWN": "London", "POSTCODE": "E8 2EY", "EASTING": 533807.000000, "NORTHING": 185451.000000, "UPRN": 100023015579.000000, "MI_STYLE": null, "MI_PRINX": 49.000000 }, "geometry": { "type": "Point", "coordinates": [ -0.071466739213363, 51.552087688613184 ] } },
{ "type": "Feature", "properties": { "TYPE": "Nursery", "NAME": "Beis Chinuch Lebonos Nursery", "HOUSE_NO": null, "ADDRESS1": "Woodberry Down Centre", "ADDRESS2": "Woodberry Down", "TOWN": "London", "POSTCODE": "N4 2TW", "EASTING": 532402.000000, "NORTHING": 187541.000000, "UPRN": 10008463792.000000, "MI_STYLE": null, "MI_PRINX": 51.000000 }, "geometry": { "type": "Point", "coordinates": [ -0.090932759972832, 51.571200298401287 ] } },
{ "type": "Feature", "properties": { "TYPE": "Nursery", "NAME": "Beis Malka Day Creche", "HOUSE_NO": "93", "ADDRESS1": "Alkha Road", "ADDRESS2": null, "TOWN": "London", "POSTCODE": "N16 6XD", "EASTING": 533811.000000, "NORTHING": 187086.000000, "UPRN": 200002797577.000000, "MI_STYLE": null, "MI_PRINX": 52.000000 }, "geometry": { "type": "Point", "coordinates": [ -0.070787407523151, 51.566779225689196 ] } },
{ "type": "Feature", "properties": { "TYPE": "Nursery", "NAME": "Belz Day Nursery School", "HOUSE_NO": "96-98", "ADDRESS1": "Clapton Common", "ADDRESS2": null, "TOWN": "London", "POSTCODE": "E5 9AL", "EASTING": 534172.000000, "NORTHING": 187722.000000, "UPRN": 100023006360.000000, "MI_STYLE": null, "MI_PRINX": 55.000000 }, "geometry": { "type": "Point", "coordinates": [ -0.06533948225927, 51.572408838244137 ] } },
{ "type": "Feature", "properties": { "TYPE": "Youth Club and Centre", "NAME": "Fellows court community centre", "HOUSE_NO": null, "ADDRESS1": "Weymouth Terrace", "ADDRESS2": null, "TOWN": "London", "POSTCODE": "E2 8LR", "EASTING": 0.000000, "NORTHING": 0.000000, "UPRN": 0.000000, "MI_STYLE": null, "MI_PRINX": 237.000000 }, "geometry": { "type": "Point", "coordinates": [ -0.072821115861761, 51.533026301051557 ] } },
{ "type": "Feature", "properties": { "TYPE": "Independent Primary School", "NAME": "Talmud Torah Bobov ", "HOUSE_NO": "87", "ADDRESS1": "Egerton Road", "ADDRESS2": null, "TOWN": "London", "POSTCODE": "N16 6UE", "EASTING": 533958.000000, "NORTHING": 187920.000000, "UPRN": 100023158226.000000, "MI_STYLE": null, "MI_PRINX": 57.000000 }, "geometry": { "type": "Point", "coordinates": [ -0.06835011744702, 51.574238893908763 ] } },
{ "type": "Feature", "properties": { "TYPE": "Nursery", "NAME": "Broadgate Nursery", "HOUSE_NO": "21", "ADDRESS1": "Curtain Road", "ADDRESS2": null, "TOWN": "London", "POSTCODE": "EC2A 3LW", "EASTING": 533224.000000, "NORTHING": 182154.000000, "UPRN": 10008241867.000000, "MI_STYLE": null, "MI_PRINX": 58.000000 }, "geometry": { "type": "Point", "coordinates": [ -0.081116951157165, 51.522597451866218 ] } },
{ "type": "Feature", "properties": { "TYPE": "Playgroup", "NAME": "Burma Court Playgroup", "HOUSE_NO": null, "ADDRESS1": "Mable Thornton Community Centre", "ADDRESS2": "Burma Road", "TOWN": "London", "POSTCODE": "N16 9BG", "EASTING": 532604.000000, "NORTHING": 185820.000000, "UPRN": 10008241542.000000, "MI_STYLE": null, "MI_PRINX": 59.000000 }, "geometry": { "type": "Point", "coordinates": [ -0.088668493706924, 51.55568737324387 ] } },
{ "type": "Feature", "properties": { "TYPE": "Nursery", "NAME": "Twinkle Stars Day Nursery", "HOUSE_NO": "416", "ADDRESS1": "Seven Sisters Road", "ADDRESS2": null, "TOWN": "London", "POSTCODE": "N4 2LX", "EASTING": 532015.000000, "NORTHING": 187388.000000, "UPRN": 100023185488.000000, "MI_STYLE": null, "MI_PRINX": 60.000000 }, "geometry": { "type": "Point", "coordinates": [ -0.09657108701147, 51.5699160792865 ] } },
{ "type": "Feature", "properties": { "TYPE": "Nursery", "NAME": "CMA Community Nursery", "HOUSE_NO": null, "ADDRESS1": "Lampard Grove", "ADDRESS2": null, "TOWN": "London", "POSTCODE": "N16 6XB", "EASTING": 533804.000000, "NORTHING": 187128.000000, "UPRN": 100023157748.000000, "MI_STYLE": null, "MI_PRINX": 61.000000 }, "geometry": { "type": "Point", "coordinates": [ -0.070872362543527, 51.567158379784253 ] } },
{ "type": "Feature", "properties": { "TYPE": "Youth Club and Centre", "NAME": "Frampton Park Youth Club", "HOUSE_NO": null, "ADDRESS1": "Well Street", "ADDRESS2": "Frampton Park Estate", "TOWN": "London", "POSTCODE": "E9 7PF", "EASTING": 0.000000, "NORTHING": 0.000000, "UPRN": 0.000000, "MI_STYLE": null, "MI_PRINX": 238.000000 }, "geometry": { "type": "Point", "coordinates": [ -0.050559691677254, 51.542039076005423 ] } },
{ "type": "Feature", "properties": { "TYPE": "Youth Club and Centre", "NAME": "Guinness Trust Youth Centre", "HOUSE_NO": null, "ADDRESS1": "Guinness Trust Estate", "ADDRESS2": "Stamford Hill", "TOWN": "London", "POSTCODE": "N16 5QT", "EASTING": 0.000000, "NORTHING": 0.000000, "UPRN": 0.000000, "MI_STYLE": null, "MI_PRINX": 239.000000 }, "geometry": { "type": "Point", "coordinates": [ -0.074121840870952, 51.567832694167059 ] } },
{ "type": "Feature", "properties": { "TYPE": "Youth Club and Centre", "NAME": "Young Hackney Stoke Newington YPC", "HOUSE_NO": null, "ADDRESS1": "Chaucer Court", "ADDRESS2": "Stoke Newington", "TOWN": "London", "POSTCODE": "N16 8TS", "EASTING": 0.000000, "NORTHING": 0.000000, "UPRN": 0.000000, "MI_STYLE": null, "MI_PRINX": 240.000000 }, "geometry": { "type": "Point", "coordinates": [ -0.082279565963874, 51.553198176622459 ] } },
{ "type": "Feature", "properties": { "TYPE": "Nursery", "NAME": "Glory Early Years Centre", "HOUSE_NO": null, "ADDRESS1": "Warwick Grove", "ADDRESS2": null, "TOWN": "London", "POSTCODE": "E5 9JB", "EASTING": 534785.000000, "NORTHING": 187053.000000, "UPRN": 10008243803.000000, "MI_STYLE": null, "MI_PRINX": 65.000000 }, "geometry": { "type": "Point", "coordinates": [ -0.056756015996355, 51.566250926839068 ] } },
{ "type": "Feature", "properties": { "TYPE": "Nursery", "NAME": "Grasshoppers in the Park", "HOUSE_NO": "37", "ADDRESS1": "Clapton Common", "ADDRESS2": null, "TOWN": "London", "POSTCODE": "E5 9AA", "EASTING": 534255.000000, "NORTHING": 187440.000000, "UPRN": 100021031759.000000, "MI_STYLE": null, "MI_PRINX": 66.000000 }, "geometry": { "type": "Point", "coordinates": [ -0.06425029184314, 51.56985490214614 ] } },
{ "type": "Feature", "properties": { "TYPE": "Nursery", "NAME": "Hackney Care for Kids Nursery", "HOUSE_NO": "61", "ADDRESS1": "Evering Road", "ADDRESS2": null, "TOWN": "London", "POSTCODE": "N16 7PR", "EASTING": 533876.000000, "NORTHING": 186113.000000, "UPRN": 100023159708.000000, "MI_STYLE": null, "MI_PRINX": 67.000000 }, "geometry": { "type": "Point", "coordinates": [ -0.07022044306294, 51.558020255771623 ] } },
{ "type": "Feature", "properties": { "TYPE": "Nursery", "NAME": "Happy Nest Nursery  (Mutlu Yuva)", "HOUSE_NO": null, "ADDRESS1": "Weymouth Terrace", "ADDRESS2": null, "TOWN": "London", "POSTCODE": "E2 8LR", "EASTING": 533765.000000, "NORTHING": 183393.000000, "UPRN": 100022992362.000000, "MI_STYLE": null, "MI_PRINX": 71.000000 }, "geometry": { "type": "Point", "coordinates": [ -0.072853668488798, 51.533603813066648 ] } },
{ "type": "Feature", "properties": { "TYPE": "Nursery", "NAME": "Roof Top Daycare Nursery (Roof Top Nursery)", "HOUSE_NO": "6", "ADDRESS1": "Ottaway Street", "ADDRESS2": null, "TOWN": "London", "POSTCODE": "E5 8PX", "EASTING": 534210.000000, "NORTHING": 186096.000000, "UPRN": 10008463813.000000, "MI_STYLE": null, "MI_PRINX": 72.000000 }, "geometry": { "type": "Point", "coordinates": [ -0.065411909878074, 51.557788148317407 ] } },
{ "type": "Feature", "properties": { "TYPE": "Nursery", "NAME": "Horizon Play Centre", "HOUSE_NO": null, "ADDRESS1": "Wordsworth Road", "ADDRESS2": null, "TOWN": "London", "POSTCODE": "N16 8BZ", "EASTING": 533294.000000, "NORTHING": 185654.000000, "UPRN": 100021083056.000000, "MI_STYLE": null, "MI_PRINX": 75.000000 }, "geometry": { "type": "Point", "coordinates": [ -0.078784497932143, 51.554033158370515 ] } },
{ "type": "Feature", "properties": { "TYPE": "Nursery", "NAME": "Independent Place Nursery", "HOUSE_NO": "76", "ADDRESS1": "Shacklewell Lane", "ADDRESS2": null, "TOWN": "London", "POSTCODE": "E8 2HE", "EASTING": 533807.000000, "NORTHING": 185451.000000, "UPRN": 100023015579.000000, "MI_STYLE": null, "MI_PRINX": 77.000000 }, "geometry": { "type": "Point", "coordinates": [ -0.071466739213363, 51.552087688613184 ] } },
{ "type": "Feature", "properties": { "TYPE": "Nursery", "NAME": "Kingsland Nursery", "HOUSE_NO": "3", "ADDRESS1": "Birkbeck Mews", "ADDRESS2": null, "TOWN": "London", "POSTCODE": "E8 2LE", "EASTING": 533586.000000, "NORTHING": 185165.000000, "UPRN": 10008463812.000000, "MI_STYLE": null, "MI_PRINX": 78.000000 }, "geometry": { "type": "Point", "coordinates": [ -0.074760856081529, 51.549569853589297 ] } },
{ "type": "Feature", "properties": { "TYPE": "Nursery", "NAME": "Little Angels Schoolhouse", "HOUSE_NO": "5", "ADDRESS1": "Bletchley Street", "ADDRESS2": null, "TOWN": "London", "POSTCODE": "N1 7QG", "EASTING": 532455.000000, "NORTHING": 183078.000000, "UPRN": 10008463071.000000, "MI_STYLE": null, "MI_PRINX": 81.000000 }, "geometry": { "type": "Point", "coordinates": [ -0.091847478143778, 51.531081667648976 ] } },
{ "type": "Feature", "properties": { "TYPE": "Nursery", "NAME": "Little Buds Day Nursery", "HOUSE_NO": "30", "ADDRESS1": "Powell Road", "ADDRESS2": null, "TOWN": "London", "POSTCODE": "E5 8DJ", "EASTING": 534837.000000, "NORTHING": 186076.000000, "UPRN": 10008300353.000000, "MI_STYLE": null, "MI_PRINX": 82.000000 }, "geometry": { "type": "Point", "coordinates": [ -0.056380614289094, 51.557458995684833 ] } },
{ "type": "Feature", "properties": { "TYPE": "Nursery", "NAME": "Little Saints Pre-School", "HOUSE_NO": null, "ADDRESS1": "Homerton Road", "ADDRESS2": null, "TOWN": "London", "POSTCODE": "E9 5QB", "EASTING": 536380.000000, "NORTHING": 185318.000000, "UPRN": 10008241129.000000, "MI_STYLE": null, "MI_PRINX": 83.000000 }, "geometry": { "type": "Point", "coordinates": [ -0.034430671213351, 51.550277009222668 ] } },
{ "type": "Feature", "properties": { "TYPE": "Nursery", "NAME": "Lubavitch Nursery", "HOUSE_NO": null, "ADDRESS1": "Stamford Hill", "ADDRESS2": null, "TOWN": "London", "POSTCODE": "N16 5RP", "EASTING": 533621.000000, "NORTHING": 187688.000000, "UPRN": 100023155932.000000, "MI_STYLE": null, "MI_PRINX": 85.000000 }, "geometry": { "type": "Point", "coordinates": [ -0.073298305755662, 51.572234041084954 ] } },
{ "type": "Feature", "properties": { "TYPE": "Nursery", "NAME": "Market Day Nursery", "HOUSE_NO": null, "ADDRESS1": "Wilde Close", "ADDRESS2": "Off Pownall Road", "TOWN": "London", "POSTCODE": "E8 4JS", "EASTING": 534246.000000, "NORTHING": 183831.000000, "UPRN": 100023018399.000000, "MI_STYLE": null, "MI_PRINX": 87.000000 }, "geometry": { "type": "Point", "coordinates": [ -0.065756296070572, 51.537425692751768 ] } },
{ "type": "Feature", "properties": { "TYPE": "Nursery", "NAME": "Minihome Ltd Nursery", "HOUSE_NO": "14", "ADDRESS1": "Allen Road", "ADDRESS2": null, "TOWN": "London", "POSTCODE": "N16 8SD", "EASTING": 533190.000000, "NORTHING": 185770.000000, "UPRN": 100023161780.000000, "MI_STYLE": null, "MI_PRINX": 88.000000 }, "geometry": { "type": "Point", "coordinates": [ -0.080239822348212, 51.555100174034749 ] } },
{ "type": "Feature", "properties": { "TYPE": "Nursery", "NAME": "Minik Kardes Day Nursery", "HOUSE_NO": "53-55", "ADDRESS1": "Balls Pond Road", "ADDRESS2": null, "TOWN": "London", "POSTCODE": "N1 4BW", "EASTING": 533346.000000, "NORTHING": 184769.000000, "UPRN": 100023134281.000000, "MI_STYLE": null, "MI_PRINX": 89.000000 }, "geometry": { "type": "Point", "coordinates": [ -0.078370168704041, 51.546068015096836 ] } },
{ "type": "Feature", "properties": { "TYPE": "Nursery", "NAME": "New Generation Nursery", "HOUSE_NO": null, "ADDRESS1": "Haggerston Road", "ADDRESS2": null, "TOWN": "London", "POSTCODE": "E8 4JA", "EASTING": 533801.000000, "NORTHING": 183769.000000, "UPRN": 100023016552.000000, "MI_STYLE": null, "MI_PRINX": 91.000000 }, "geometry": { "type": "Point", "coordinates": [ -0.072192230973561, 51.536974077216541 ] } },
{ "type": "Feature", "properties": { "TYPE": "Nursery", "NAME": "Phoenix Montessori Nursery", "HOUSE_NO": "27", "ADDRESS1": "Stamford Hill", "ADDRESS2": null, "TOWN": "London", "POSTCODE": "N16 5TN", "EASTING": 533620.000000, "NORTHING": 186854.000000, "UPRN": 10008291826.000000, "MI_STYLE": null, "MI_PRINX": 93.000000 }, "geometry": { "type": "Point", "coordinates": [ -0.073629645450768, 51.564739717235284 ] } },
{ "type": "Feature", "properties": { "TYPE": "Nursery", "NAME": "Places for Children Nursery (Co operative Childcare)", "HOUSE_NO": "106", "ADDRESS1": "Morning Lane", "ADDRESS2": null, "TOWN": "London", "POSTCODE": "E9 6LH", "EASTING": 535296.000000, "NORTHING": 184925.000000, "UPRN": 10008298860.000000, "MI_STYLE": null, "MI_PRINX": 94.000000 }, "geometry": { "type": "Point", "coordinates": [ -0.050205988756923, 51.547006104200264 ] } },
{ "type": "Feature", "properties": { "TYPE": "Nursery", "NAME": "Rainbow Nursery", "HOUSE_NO": "22-26", "ADDRESS1": "Nevill Road", "ADDRESS2": "Stoke Newington", "TOWN": "London", "POSTCODE": "N16 8SP", "EASTING": 533279.000000, "NORTHING": 185912.000000, "UPRN": 100023161400.000000, "MI_STYLE": null, "MI_PRINX": 95.000000 }, "geometry": { "type": "Point", "coordinates": [ -0.078903120857113, 51.55635522643167 ] } },
{ "type": "Feature", "properties": { "TYPE": "Nursery", "NAME": "Riverside Community Nursery", "HOUSE_NO": "1A", "ADDRESS1": "Riverside Close", "ADDRESS2": null, "TOWN": "London", "POSTCODE": "E5 9SP", "EASTING": 535342.000000, "NORTHING": 186871.000000, "UPRN": 100023007707.000000, "MI_STYLE": null, "MI_PRINX": 96.000000 }, "geometry": { "type": "Point", "coordinates": [ -0.048794758310493, 51.564482182098388 ] } },
{ "type": "Feature", "properties": { "TYPE": "Nursery", "NAME": "Rosemary Works Early Years Centre", "HOUSE_NO": "Unit 2A", "ADDRESS1": "Branch Place", "ADDRESS2": null, "TOWN": "London", "POSTCODE": "N1 5PH", "EASTING": 532865.000000, "NORTHING": 183768.000000, "UPRN": 10008302215.000000, "MI_STYLE": null, "MI_PRINX": 97.000000 }, "geometry": { "type": "Point", "coordinates": [ -0.085680191294396, 51.537185969156567 ] } },
{ "type": "Feature", "properties": { "TYPE": "Nursery", "NAME": "Round Chapel Families Project Day Nursery", "HOUSE_NO": null, "ADDRESS1": "Powerscroft Road", "ADDRESS2": null, "TOWN": "London", "POSTCODE": "E5 0PU", "EASTING": 535153.000000, "NORTHING": 185505.000000, "UPRN": 10008313965.000000, "MI_STYLE": null, "MI_PRINX": 98.000000 }, "geometry": { "type": "Point", "coordinates": [ -0.052044403348447, 51.552252365144383 ] } },
{ "type": "Feature", "properties": { "TYPE": "Nursery", "NAME": "Side by Side Nursery", "HOUSE_NO": "9", "ADDRESS1": "Big Hill", "ADDRESS2": null, "TOWN": "London", "POSTCODE": "E5 9HH", "EASTING": 534909.000000, "NORTHING": 187338.000000, "UPRN": 10008313969.000000, "MI_STYLE": null, "MI_PRINX": 99.000000 }, "geometry": { "type": "Point", "coordinates": [ -0.054858813047346, 51.568782438511967 ] } },
{ "type": "Feature", "properties": { "TYPE": "Nursery", "NAME": "St Angela's Day Nursery", "HOUSE_NO": "34", "ADDRESS1": "Adolphus Road", "ADDRESS2": null, "TOWN": "London", "POSTCODE": "N4 2AY", "EASTING": 531979.000000, "NORTHING": 187167.000000, "UPRN": 100021021741.000000, "MI_STYLE": null, "MI_PRINX": 100.000000 }, "geometry": { "type": "Point", "coordinates": [ -0.097173113517358, 51.567938534608047 ] } },
{ "type": "Feature", "properties": { "TYPE": "Nursery", "NAME": "St. Michael's Day Nursery - Blurton Road", "HOUSE_NO": "76", "ADDRESS1": "Blurton Road", "ADDRESS2": null, "TOWN": "London", "POSTCODE": "E5 0NH", "EASTING": 535685.000000, "NORTHING": 185697.000000, "UPRN": 100023001994.000000, "MI_STYLE": null, "MI_PRINX": 101.000000 }, "geometry": { "type": "Point", "coordinates": [ -0.044302070723769, 51.553850176627584 ] } },
{ "type": "Feature", "properties": { "TYPE": "Nursery", "NAME": "Sunflower Children's Nursery", "HOUSE_NO": "36", "ADDRESS1": "Colne Road", "ADDRESS2": null, "TOWN": "London", "POSTCODE": "E5 0HR", "EASTING": 536038.000000, "NORTHING": 185627.000000, "UPRN": 10008463823.000000, "MI_STYLE": null, "MI_PRINX": 103.000000 }, "geometry": { "type": "Point", "coordinates": [ -0.039240668801867, 51.553136216971474 ] } },
{ "type": "Feature", "properties": { "TYPE": "Nursery", "NAME": "Sunrise Nursery", "HOUSE_NO": "1", "ADDRESS1": "Cazenove Road", "ADDRESS2": "Stoke Newington", "TOWN": "London", "POSTCODE": "N16 6PA", "EASTING": 533687.000000, "NORTHING": 186792.000000, "UPRN": 100023159192.000000, "MI_STYLE": null, "MI_PRINX": 104.000000 }, "geometry": { "type": "Point", "coordinates": [ -0.072687061172814, 51.564166682102311 ] } },
{ "type": "Feature", "properties": { "TYPE": "Nursery", "NAME": "Teddy Bear House Nursery - Dalston Branch", "HOUSE_NO": null, "ADDRESS1": "The Trinity Centre", "ADDRESS2": "Beechwood Road", "TOWN": "London", "POSTCODE": "E8 3DY", "EASTING": 533707.000000, "NORTHING": 184594.000000, "UPRN": 100023016243.000000, "MI_STYLE": null, "MI_PRINX": 107.000000 }, "geometry": { "type": "Point", "coordinates": [ -0.073233650097005, 51.544410073249495 ] } },
{ "type": "Feature", "properties": { "TYPE": "Nursery", "NAME": "Teddy Bear House Nursery Clapton Branch", "HOUSE_NO": "51", "ADDRESS1": "Mayola Road", "ADDRESS2": null, "TOWN": "London", "POSTCODE": "E5 0RE", "EASTING": 535199.000000, "NORTHING": 185762.000000, "UPRN": 100023002134.000000, "MI_STYLE": null, "MI_PRINX": 108.000000 }, "geometry": { "type": "Point", "coordinates": [ -0.051282656502892, 51.554550769869159 ] } },
{ "type": "Feature", "properties": { "TYPE": "Nursery", "NAME": "The Teddy Bear School House Nursery (Clapton)", "HOUSE_NO": "51", "ADDRESS1": "Mayola Road", "ADDRESS2": null, "TOWN": "London", "POSTCODE": "E5 0RE", "EASTING": 535199.000000, "NORTHING": 185762.000000, "UPRN": 100023002134.000000, "MI_STYLE": null, "MI_PRINX": 109.000000 }, "geometry": { "type": "Point", "coordinates": [ -0.051282656502892, 51.554550769869159 ] } },
{ "type": "Feature", "properties": { "TYPE": "Nursery", "NAME": "The Teddy Bear School House Nursery (Dalston)", "HOUSE_NO": null, "ADDRESS1": "Beechwood Road", "ADDRESS2": null, "TOWN": "London", "POSTCODE": "E8 3DY", "EASTING": 533670.000000, "NORTHING": 184596.000000, "UPRN": 100023016264.000000, "MI_STYLE": null, "MI_PRINX": 110.000000 }, "geometry": { "type": "Point", "coordinates": [ -0.07376607237807, 51.544436796423234 ] } },
{ "type": "Feature", "properties": { "TYPE": "Primary School", "NAME": "De Beauvoir Primary School", "HOUSE_NO": null, "ADDRESS1": "Tottenham Road", "ADDRESS2": null, "TOWN": "London", "POSTCODE": "N1 4BS", "EASTING": 533250.000000, "NORTHING": 184704.000000, "UPRN": 100023133648.000000, "MI_STYLE": null, "MI_PRINX": 166.000000 }, "geometry": { "type": "Point", "coordinates": [ -0.079778330859511, 51.54550654496223 ] } },
{ "type": "Feature", "properties": { "TYPE": "Primary School", "NAME": "Gainsborough Community Primary School", "HOUSE_NO": null, "ADDRESS1": "Wally Foster Community Centre\r", "ADDRESS2": "Homerton Rd\r", "TOWN": "London", "POSTCODE": "E9 5QB", "EASTING": 536385.000000, "NORTHING": 185301.000000, "UPRN": 100021026159.000000, "MI_STYLE": null, "MI_PRINX": 167.000000 }, "geometry": { "type": "Point", "coordinates": [ -0.026138291659606, 51.545911215628124 ] } },
{ "type": "Feature", "properties": { "TYPE": "Primary School", "NAME": "Gayhurst Primary School", "HOUSE_NO": null, "ADDRESS1": "Gayhurst Road", "ADDRESS2": null, "TOWN": "London", "POSTCODE": "E8 3EN", "EASTING": 534460.000000, "NORTHING": 184400.000000, "UPRN": 100023015772.000000, "MI_STYLE": null, "MI_PRINX": 168.000000 }, "geometry": { "type": "Point", "coordinates": [ -0.062455445875471, 51.542487961318855 ] } },
{ "type": "Feature", "properties": { "TYPE": "Primary School", "NAME": "Grasmere Primary School", "HOUSE_NO": null, "ADDRESS1": "Albion Road", "ADDRESS2": null, "TOWN": "London", "POSTCODE": "N16 9PD", "EASTING": 532913.000000, "NORTHING": 185764.000000, "UPRN": 100021022474.000000, "MI_STYLE": null, "MI_PRINX": 169.000000 }, "geometry": { "type": "Point", "coordinates": [ -0.084235190288021, 51.555111541201768 ] } },
{ "type": "Feature", "properties": { "TYPE": "Primary School", "NAME": "Grazebrook Primary School", "HOUSE_NO": null, "ADDRESS1": "Lordship Road", "ADDRESS2": null, "TOWN": "London", "POSTCODE": "N16 0QP", "EASTING": 533013.000000, "NORTHING": 186714.000000, "UPRN": 100021055647.000000, "MI_STYLE": null, "MI_PRINX": 170.000000 }, "geometry": { "type": "Point", "coordinates": [ -0.082434508869626, 51.563624992746036 ] } },
{ "type": "Feature", "properties": { "TYPE": "Primary School", "NAME": "Harrington Hill Primary School", "HOUSE_NO": null, "ADDRESS1": "Mount Pleasant Lane", "ADDRESS2": null, "TOWN": "London", "POSTCODE": "E5 9EY", "EASTING": 534954.000000, "NORTHING": 187136.000000, "UPRN": 100023007810.000000, "MI_STYLE": null, "MI_PRINX": 171.000000 }, "geometry": { "type": "Point", "coordinates": [ -0.054287414309313, 51.56695645360189 ] } },
{ "type": "Feature", "properties": { "TYPE": "Primary School", "NAME": "Holmleigh Primary School", "HOUSE_NO": null, "ADDRESS1": "Dunsmure Road", "ADDRESS2": null, "TOWN": "London", "POSTCODE": "N16 5PU", "EASTING": 533488.000000, "NORTHING": 187475.000000, "UPRN": 100023157631.000000, "MI_STYLE": null, "MI_PRINX": 172.000000 }, "geometry": { "type": "Point", "coordinates": [ -0.075297145482671, 51.570351359816293 ] } },
{ "type": "Feature", "properties": { "TYPE": "Primary School", "NAME": "Holy Trinity CE Primary School", "HOUSE_NO": null, "ADDRESS1": "Beechwood Road", "ADDRESS2": null, "TOWN": "London", "POSTCODE": "E8 3DY", "EASTING": 533670.000000, "NORTHING": 184596.000000, "UPRN": 100023016264.000000, "MI_STYLE": null, "MI_PRINX": 173.000000 }, "geometry": { "type": "Point", "coordinates": [ -0.07376607237807, 51.544436796423234 ] } },
{ "type": "Feature", "properties": { "TYPE": "Primary School", "NAME": "Jubilee Primary School", "HOUSE_NO": null, "ADDRESS1": "Filey Avenue", "ADDRESS2": null, "TOWN": "London", "POSTCODE": "N16 6NR", "EASTING": 534151.000000, "NORTHING": 187058.000000, "UPRN": 100023159140.000000, "MI_STYLE": null, "MI_PRINX": 174.000000 }, "geometry": { "type": "Point", "coordinates": [ -0.065895589345257, 51.566446975106913 ] } },
{ "type": "Feature", "properties": { "TYPE": "Primary School", "NAME": "Kingsmead Primary School", "HOUSE_NO": null, "ADDRESS1": "Kingsmead Way", "ADDRESS2": null, "TOWN": "London", "POSTCODE": "E9 5PP", "EASTING": 536318.000000, "NORTHING": 185611.000000, "UPRN": 100021048918.000000, "MI_STYLE": null, "MI_PRINX": 175.000000 }, "geometry": { "type": "Point", "coordinates": [ -0.03521078692097, 51.552924867457527 ] } },
{ "type": "Feature", "properties": { "TYPE": "Primary School", "NAME": "Lauriston School", "HOUSE_NO": null, "ADDRESS1": "Rutland Road", "ADDRESS2": null, "TOWN": "London", "POSTCODE": "E9 7JS", "EASTING": 535634.000000, "NORTHING": 183830.000000, "UPRN": 100023024242.000000, "MI_STYLE": null, "MI_PRINX": 176.000000 }, "geometry": { "type": "Point", "coordinates": [ -0.045756170411293, 51.53708522103225 ] } },
{ "type": "Feature", "properties": { "TYPE": "Primary School", "NAME": "London Fields Primary School", "HOUSE_NO": null, "ADDRESS1": "Westgate Street", "ADDRESS2": null, "TOWN": "London", "POSTCODE": "E8 3RL", "EASTING": 534642.000000, "NORTHING": 183844.000000, "UPRN": 100023016453.000000, "MI_STYLE": null, "MI_PRINX": 177.000000 }, "geometry": { "type": "Point", "coordinates": [ -0.060045172183382, 51.537448344757102 ] } },
{ "type": "Feature", "properties": { "TYPE": "Primary School", "NAME": "Lubavitch Ruth Lunzer Girls' Primary School", "HOUSE_NO": null, "ADDRESS1": "Stamford Hill", "ADDRESS2": null, "TOWN": "London", "POSTCODE": "N16 5RP", "EASTING": 533621.000000, "NORTHING": 187688.000000, "UPRN": 100023155932.000000, "MI_STYLE": null, "MI_PRINX": 178.000000 }, "geometry": { "type": "Point", "coordinates": [ -0.073298305755662, 51.572234041084954 ] } },
{ "type": "Feature", "properties": { "TYPE": "Primary School", "NAME": "Mandeville Primary School", "HOUSE_NO": null, "ADDRESS1": "Oswald Street", "ADDRESS2": null, "TOWN": "London", "POSTCODE": "E5 0BT", "EASTING": 535972.000000, "NORTHING": 186082.000000, "UPRN": 100023002674.000000, "MI_STYLE": null, "MI_PRINX": 179.000000 }, "geometry": { "type": "Point", "coordinates": [ -0.040016287637781, 51.557240793182274 ] } },
{ "type": "Feature", "properties": { "TYPE": "Primary School", "NAME": "Morningside Primary School", "HOUSE_NO": null, "ADDRESS1": "Chatham Place", "ADDRESS2": null, "TOWN": "London", "POSTCODE": "E9 6LL", "EASTING": 535253.000000, "NORTHING": 184862.000000, "UPRN": 100023022301.000000, "MI_STYLE": null, "MI_PRINX": 180.000000 }, "geometry": { "type": "Point", "coordinates": [ -0.050850014925367, 51.546450346710955 ] } },
{ "type": "Feature", "properties": { "TYPE": "Primary School", "NAME": "Nightingale Primary School", "HOUSE_NO": null, "ADDRESS1": "Rendlesham Road", "ADDRESS2": null, "TOWN": "London", "POSTCODE": "E5 8PH", "EASTING": 534253.000000, "NORTHING": 185991.000000, "UPRN": 100021068968.000000, "MI_STYLE": null, "MI_PRINX": 181.000000 }, "geometry": { "type": "Point", "coordinates": [ -0.064831976865928, 51.556834368832078 ] } },
{ "type": "Feature", "properties": { "TYPE": "Primary School", "NAME": "Northwold Primary School", "HOUSE_NO": null, "ADDRESS1": "Northwold Road", "ADDRESS2": null, "TOWN": "London", "POSTCODE": "E5 8RN", "EASTING": 534283.000000, "NORTHING": 186656.000000, "UPRN": 200001851633.000000, "MI_STYLE": null, "MI_PRINX": 182.000000 }, "geometry": { "type": "Point", "coordinates": [ -0.064145807340256, 51.562803079911376 ] } },
{ "type": "Feature", "properties": { "TYPE": "Primary School", "NAME": "Orchard Primary School", "HOUSE_NO": null, "ADDRESS1": "Holcroft Road", "ADDRESS2": null, "TOWN": "London", "POSTCODE": "E9 7BB", "EASTING": 535409.000000, "NORTHING": 184278.000000, "UPRN": 100021047054.000000, "MI_STYLE": null, "MI_PRINX": 183.000000 }, "geometry": { "type": "Point", "coordinates": [ -0.048826115413622, 51.541165015187396 ] } },
{ "type": "Feature", "properties": { "TYPE": "Primary School", "NAME": "Our Lady & St Joseph RC Primary School", "HOUSE_NO": null, "ADDRESS1": "Culford Road", "ADDRESS2": null, "TOWN": "London", "POSTCODE": "N1 4JB", "EASTING": 533186.000000, "NORTHING": 184691.000000, "UPRN": 10008235251.000000, "MI_STYLE": null, "MI_PRINX": 184.000000 }, "geometry": { "type": "Point", "coordinates": [ -0.08070561407027, 51.545404849517475 ] } },
{ "type": "Feature", "properties": { "TYPE": "Primary School", "NAME": "Parkwood Primary School", "HOUSE_NO": null, "ADDRESS1": "Queens Drive", "ADDRESS2": null, "TOWN": "London", "POSTCODE": "N4 2HQ", "EASTING": 531803.000000, "NORTHING": 186832.000000, "UPRN": 100023186921.000000, "MI_STYLE": null, "MI_PRINX": 185.000000 }, "geometry": { "type": "Point", "coordinates": [ -0.099836482760929, 51.564969176994914 ] } },
{ "type": "Feature", "properties": { "TYPE": "Primary School", "NAME": "Princess May Primary School", "HOUSE_NO": null, "ADDRESS1": "Barretts Grove", "ADDRESS2": null, "TOWN": "London", "POSTCODE": "N16 8DF", "EASTING": 533532.000000, "NORTHING": 185533.000000, "UPRN": 200002797875.000000, "MI_STYLE": null, "MI_PRINX": 186.000000 }, "geometry": { "type": "Point", "coordinates": [ -0.075399695721124, 51.552889628408828 ] } },
{ "type": "Feature", "properties": { "TYPE": "Primary School", "NAME": "Queensbridge Primary School", "HOUSE_NO": null, "ADDRESS1": "Queensbridge Road", "ADDRESS2": null, "TOWN": "London", "POSTCODE": "E8 4ET", "EASTING": 533900.000000, "NORTHING": 184049.000000, "UPRN": 100023016452.000000, "MI_STYLE": null, "MI_PRINX": 187.000000 }, "geometry": { "type": "Point", "coordinates": [ -0.070659290501244, 51.539466788932032 ] } },
{ "type": "Feature", "properties": { "TYPE": "Primary School", "NAME": "Randal Cremer Primary School", "HOUSE_NO": null, "ADDRESS1": "Ormsby Street", "ADDRESS2": null, "TOWN": "London", "POSTCODE": "E2 8JG", "EASTING": 533610.000000, "NORTHING": 183348.000000, "UPRN": 100022992335.000000, "MI_STYLE": null, "MI_PRINX": 188.000000 }, "geometry": { "type": "Point", "coordinates": [ -0.075104049974199, 51.533236033080328 ] } },
{ "type": "Feature", "properties": { "TYPE": "Primary School", "NAME": "Rushmore Primary School", "HOUSE_NO": null, "ADDRESS1": "Rushmore Road", "ADDRESS2": null, "TOWN": "London", "POSTCODE": "E5 0LE", "EASTING": 535568.000000, "NORTHING": 185761.000000, "UPRN": 10008233470.000000, "MI_STYLE": null, "MI_PRINX": 189.000000 }, "geometry": { "type": "Point", "coordinates": [ -0.045963916199612, 51.554453316031847 ] } },
{ "type": "Feature", "properties": { "TYPE": "Primary School", "NAME": "St Scholastica's RC Primary School", "HOUSE_NO": null, "ADDRESS1": "Kenninghall Road", "ADDRESS2": null, "TOWN": "London", "POSTCODE": "E5 8BS", "EASTING": 534433.000000, "NORTHING": 186181.000000, "UPRN": 100021050728.000000, "MI_STYLE": null, "MI_PRINX": 190.000000 }, "geometry": { "type": "Point", "coordinates": [ -0.062164580925517, 51.558498885434858 ] } },
{ "type": "Feature", "properties": { "TYPE": "Primary School", "NAME": "Sebright School", "HOUSE_NO": null, "ADDRESS1": "Audrey Street", "ADDRESS2": null, "TOWN": "London", "POSTCODE": "E2 8QH", "EASTING": 534218.000000, "NORTHING": 183414.000000, "UPRN": 100022992368.000000, "MI_STYLE": null, "MI_PRINX": 191.000000 }, "geometry": { "type": "Point", "coordinates": [ -0.066318596478944, 51.53368505860599 ] } },
{ "type": "Feature", "properties": { "TYPE": "Primary School", "NAME": "Shacklewell Primary School", "HOUSE_NO": "25", "ADDRESS1": "Shacklewell Row", "ADDRESS2": null, "TOWN": "London", "POSTCODE": "E8 2EA", "EASTING": 533756.000000, "NORTHING": 185566.000000, "UPRN": 100021071791.000000, "MI_STYLE": null, "MI_PRINX": 192.000000 }, "geometry": { "type": "Point", "coordinates": [ -0.072158240659685, 51.553133168413396 ] } },
{ "type": "Feature", "properties": { "TYPE": "Primary School", "NAME": "Simon Marks Jewish Primary School", "HOUSE_NO": null, "ADDRESS1": "Cazenove Road", "ADDRESS2": null, "TOWN": "London", "POSTCODE": "N16 6PD", "EASTING": 533974.000000, "NORTHING": 186970.000000, "UPRN": 100023157753.000000, "MI_STYLE": null, "MI_PRINX": 193.000000 }, "geometry": { "type": "Point", "coordinates": [ -0.068481329248227, 51.565698183781855 ] } },
{ "type": "Feature", "properties": { "TYPE": "Primary School", "NAME": "Sir Thomas Abney School", "HOUSE_NO": null, "ADDRESS1": "Fairholt Road", "ADDRESS2": null, "TOWN": "London", "POSTCODE": "N16 5ED", "EASTING": 533057.000000, "NORTHING": 187444.000000, "UPRN": 100021026397.000000, "MI_STYLE": null, "MI_PRINX": 194.000000 }, "geometry": { "type": "Point", "coordinates": [ -0.081524042547865, 51.57017464519209 ] } },
{ "type": "Feature", "properties": { "TYPE": "Primary School", "NAME": "Southwold Primary School", "HOUSE_NO": null, "ADDRESS1": "Detmold Road", "ADDRESS2": null, "TOWN": "London", "POSTCODE": "E5 9NL", "EASTING": 535027.000000, "NORTHING": 186734.000000, "UPRN": 100021036932.000000, "MI_STYLE": null, "MI_PRINX": 195.000000 }, "geometry": { "type": "Point", "coordinates": [ -0.053389103036883, 51.563326509434269 ] } },
{ "type": "Feature", "properties": { "TYPE": "Primary School", "NAME": "Springfield Community Primary", "HOUSE_NO": null, "ADDRESS1": "Castlewood Road", "ADDRESS2": null, "TOWN": "London", "POSTCODE": "N16 6DH", "EASTING": 534185.000000, "NORTHING": 188159.000000, "UPRN": 100021030252.000000, "MI_STYLE": null, "MI_PRINX": 196.000000 }, "geometry": { "type": "Point", "coordinates": [ -0.064985323633262, 51.576332680188592 ] } },
{ "type": "Feature", "properties": { "TYPE": "Primary School", "NAME": "St Dominics RC Primary School", "HOUSE_NO": null, "ADDRESS1": "Ballance Road", "ADDRESS2": null, "TOWN": "London", "POSTCODE": "E9 5SR", "EASTING": 535869.000000, "NORTHING": 185144.000000, "UPRN": 100023020640.000000, "MI_STYLE": null, "MI_PRINX": 197.000000 }, "geometry": { "type": "Point", "coordinates": [ -0.041863097227565, 51.548836588035428 ] } },
{ "type": "Feature", "properties": { "TYPE": "Primary School", "NAME": "St John of Jerusalem CE Primary School", "HOUSE_NO": "24b", "ADDRESS1": "Ainsworth Road", "ADDRESS2": null, "TOWN": "London", "POSTCODE": "E9 7JF", "EASTING": 535367.000000, "NORTHING": 184079.000000, "UPRN": 100023024996.000000, "MI_STYLE": null, "MI_PRINX": 198.000000 }, "geometry": { "type": "Point", "coordinates": [ -0.04950783820417, 51.539386801995441 ] } },
{ "type": "Feature", "properties": { "TYPE": "Primary School", "NAME": "St John the Baptist CE Primary School", "HOUSE_NO": null, "ADDRESS1": "Crondall Street", "ADDRESS2": null, "TOWN": "London", "POSTCODE": "N1 6JG", "EASTING": 533001.000000, "NORTHING": 183077.000000, "UPRN": 100021035230.000000, "MI_STYLE": null, "MI_PRINX": 199.000000 }, "geometry": { "type": "Point", "coordinates": [ -0.083981192033885, 51.530944453770736 ] } },
{ "type": "Feature", "properties": { "TYPE": "Primary School", "NAME": "St Mary's CE School", "HOUSE_NO": null, "ADDRESS1": "Barn Street", "ADDRESS2": null, "TOWN": "London", "POSTCODE": "N16 0JT", "EASTING": 533047.000000, "NORTHING": 186536.000000, "UPRN": 100023154891.000000, "MI_STYLE": null, "MI_PRINX": 200.000000 }, "geometry": { "type": "Point", "coordinates": [ -0.082011681261808, 51.562017424165319 ] } },
{ "type": "Feature", "properties": { "TYPE": "Primary School", "NAME": "St Matthias CE Primary School", "HOUSE_NO": null, "ADDRESS1": "Wordsworth Road", "ADDRESS2": null, "TOWN": "London", "POSTCODE": "N16 8DD", "EASTING": 533270.000000, "NORTHING": 185464.000000, "UPRN": 100023161573.000000, "MI_STYLE": null, "MI_PRINX": 201.000000 }, "geometry": { "type": "Point", "coordinates": [ -0.079202406094498, 51.552331460998928 ] } },
{ "type": "Feature", "properties": { "TYPE": "Primary School", "NAME": "St Monica's RC Primary School", "HOUSE_NO": null, "ADDRESS1": "Hoxton Square", "ADDRESS2": null, "TOWN": "London", "POSTCODE": "N1 6NT", "EASTING": 533177.000000, "NORTHING": 182791.000000, "UPRN": 100023135547.000000, "MI_STYLE": null, "MI_PRINX": 203.000000 }, "geometry": { "type": "Point", "coordinates": [ -0.081553476652231, 51.528332831102027 ] } },
{ "type": "Feature", "properties": { "TYPE": "Primary School", "NAME": "St Paul's with St Michael's Primary School", "HOUSE_NO": "57A", "ADDRESS1": "Broughton Road", "ADDRESS2": null, "TOWN": "London", "POSTCODE": "E8 4PB", "EASTING": 534308.000000, "NORTHING": 183885.000000, "UPRN": 10008292971.000000, "MI_STYLE": null, "MI_PRINX": 204.000000 }, "geometry": { "type": "Point", "coordinates": [ -0.064842384737156, 51.537896259203343 ] } },
{ "type": "Feature", "properties": { "TYPE": "Primary School", "NAME": "Thomas Fairchild Community School", "HOUSE_NO": null, "ADDRESS1": "Napier Grove", "ADDRESS2": null, "TOWN": "London", "POSTCODE": "N1 7HX", "EASTING": 532506.000000, "NORTHING": 183316.000000, "UPRN": 10008242905.000000, "MI_STYLE": null, "MI_PRINX": 205.000000 }, "geometry": { "type": "Point", "coordinates": [ -0.091023264132619, 51.533208408370797 ] } },
{ "type": "Feature", "properties": { "TYPE": "Primary School", "NAME": "Tyssen Community Primary School", "HOUSE_NO": null, "ADDRESS1": "Oldhill Street", "ADDRESS2": null, "TOWN": "London", "POSTCODE": "N16 6QA", "EASTING": 534111.000000, "NORTHING": 187372.000000, "UPRN": 100023159197.000000, "MI_STYLE": null, "MI_PRINX": 206.000000 }, "geometry": { "type": "Point", "coordinates": [ -0.066352697109758, 51.569278160819962 ] } },
{ "type": "Feature", "properties": { "TYPE": "Primary School", "NAME": "Whitmore School", "HOUSE_NO": null, "ADDRESS1": "Bridport Place", "ADDRESS2": null, "TOWN": "London", "POSTCODE": "N1 5JN", "EASTING": 532825.000000, "NORTHING": 183566.000000, "UPRN": 100023545808.000000, "MI_STYLE": null, "MI_PRINX": 207.000000 }, "geometry": { "type": "Point", "coordinates": [ -0.086332676326114, 51.535380192688599 ] } },
{ "type": "Feature", "properties": { "TYPE": "Primary School", "NAME": "William Patten Primary School", "HOUSE_NO": null, "ADDRESS1": "Stoke Newington Church Street", "ADDRESS2": null, "TOWN": "London", "POSTCODE": "N16 0NX", "EASTING": 533532.000000, "NORTHING": 186544.000000, "UPRN": 100023155595.000000, "MI_STYLE": null, "MI_PRINX": 208.000000 }, "geometry": { "type": "Point", "coordinates": [ -0.075016118453922, 51.56197478104405 ] } },
{ "type": "Feature", "properties": { "TYPE": "Primary School", "NAME": "Woodberry Down Community Primary School", "HOUSE_NO": null, "ADDRESS1": "Woodberry Grove", "ADDRESS2": null, "TOWN": "London", "POSTCODE": "N4 1SY", "EASTING": 532361.000000, "NORTHING": 187784.000000, "UPRN": 100023183149.000000, "MI_STYLE": null, "MI_PRINX": 209.000000 }, "geometry": { "type": "Point", "coordinates": [ -0.091432580116665, 51.573393606269136 ] } },
{ "type": "Feature", "properties": { "TYPE": "Pupil Referral Unit", "NAME": "Alt. Provision - Generic Technology Centre", "HOUSE_NO": "59", "ADDRESS1": "De Beauvoir Road", "ADDRESS2": null, "TOWN": "London", "POSTCODE": "N1 5AU", "EASTING": 533168.000000, "NORTHING": 184088.000000, "UPRN": 100021036562.000000, "MI_STYLE": null, "MI_PRINX": 210.000000 }, "geometry": { "type": "Point", "coordinates": [ -0.081192983780321, 51.539990346578762 ] } },
{ "type": "Feature", "properties": { "TYPE": "Pupil Referral Unit", "NAME": "Daniel House PRU", "HOUSE_NO": null, "ADDRESS1": "Clissold Road", "ADDRESS2": null, "TOWN": "London", "POSTCODE": "N16 9EX", "EASTING": 532836.000000, "NORTHING": 186151.000000, "UPRN": 10008238517.000000, "MI_STYLE": null, "MI_PRINX": 211.000000 }, "geometry": { "type": "Point", "coordinates": [ -0.085199134116218, 51.558607371863339 ] } },
{ "type": "Feature", "properties": { "TYPE": "Pupil Referral Unit", "NAME": "New Visions PRU", "HOUSE_NO": "1", "ADDRESS1": "Reading Lane", "ADDRESS2": null, "TOWN": "London", "POSTCODE": "E8 1GQ", "EASTING": 534895.000000, "NORTHING": 184633.000000, "UPRN": 10008243135.000000, "MI_STYLE": null, "MI_PRINX": 212.000000 }, "geometry": { "type": "Point", "coordinates": [ -0.056097411257366, 51.544478075985268 ] } },
{ "type": "Feature", "properties": { "TYPE": "Pupil Referral Unit", "NAME": "Regent's Vocational College", "HOUSE_NO": null, "ADDRESS1": "Nile Street", "ADDRESS2": null, "TOWN": "London", "POSTCODE": "N1 7RD", "EASTING": 532578.000000, "NORTHING": 182905.000000, "UPRN": 100021062019.000000, "MI_STYLE": null, "MI_PRINX": 213.000000 }, "geometry": { "type": "Point", "coordinates": [ -0.090140368624004, 51.529498171867566 ] } },
{ "type": "Feature", "properties": { "TYPE": "Secondary School", "NAME": "Cardinal Pole Catholic School", "HOUSE_NO": null, "ADDRESS1": "Morning Lane", "ADDRESS2": null, "TOWN": "London", "POSTCODE": "E9 5RB", "EASTING": 536222.000000, "NORTHING": 184946.000000, "UPRN": 100021050997.000000, "MI_STYLE": null, "MI_PRINX": 214.000000 }, "geometry": { "type": "Point", "coordinates": [ -0.036851925210132, 51.546972278741237 ] } },
{ "type": "Feature", "properties": { "TYPE": "Secondary School", "NAME": "The City Academy, Hackney", "HOUSE_NO": null, "ADDRESS1": "Homerton Row", "ADDRESS2": null, "TOWN": "London", "POSTCODE": "E9 6EA", "EASTING": 535342.000000, "NORTHING": 185112.000000, "UPRN": 100021049509.000000, "MI_STYLE": null, "MI_PRINX": 216.000000 }, "geometry": { "type": "Point", "coordinates": [ -0.049471145827293, 51.548675556861212 ] } },
{ "type": "Feature", "properties": { "TYPE": "Secondary School", "NAME": "Clapton Girls Academy", "HOUSE_NO": null, "ADDRESS1": "Laura Place", "ADDRESS2": null, "TOWN": "London", "POSTCODE": "E5 0RB", "EASTING": 535150.000000, "NORTHING": 185779.000000, "UPRN": 100023001701.000000, "MI_STYLE": null, "MI_PRINX": 217.000000 }, "geometry": { "type": "Point", "coordinates": [ -0.051982470046522, 51.554715311102413 ] } },
{ "type": "Feature", "properties": { "TYPE": "Secondary School", "NAME": "Haggerston School", "HOUSE_NO": null, "ADDRESS1": "Weymouth terrace", "ADDRESS2": null, "TOWN": "London", "POSTCODE": "E2 8LS", "EASTING": 533813.000000, "NORTHING": 183262.000000, "UPRN": 0.000000, "MI_STYLE": null, "MI_PRINX": 218.000000 }, "geometry": { "type": "Point", "coordinates": [ -0.072211872554179, 51.532415219760772 ] } },
{ "type": "Feature", "properties": { "TYPE": "Secondary School", "NAME": "The Urswick School", "HOUSE_NO": null, "ADDRESS1": "Paragon Road", "ADDRESS2": "Mare Street", "TOWN": "London", "POSTCODE": "E9 6NR", "EASTING": 535046.000000, "NORTHING": 184634.000000, "UPRN": 100023020882.000000, "MI_STYLE": null, "MI_PRINX": 219.000000 }, "geometry": { "type": "Point", "coordinates": [ -0.053920834152098, 51.544450979691383 ] } },
{ "type": "Feature", "properties": { "TYPE": "Secondary School", "NAME": "Mossbourne Community Academy", "HOUSE_NO": null, "ADDRESS1": "Downs Park Road", "ADDRESS2": null, "TOWN": "London", "POSTCODE": "E5 8JY", "EASTING": 534385.000000, "NORTHING": 185444.000000, "UPRN": 100023005707.000000, "MI_STYLE": null, "MI_PRINX": 220.000000 }, "geometry": { "type": "Point", "coordinates": [ -0.063137977660318, 51.551887465353317 ] } },
{ "type": "Feature", "properties": { "TYPE": "Secondary School", "NAME": "Our Lady's Convent RC High School", "HOUSE_NO": null, "ADDRESS1": "6-16 Amhurst Park", "ADDRESS2": "Stamford Hill", "TOWN": "London", "POSTCODE": "N16 5AF", "EASTING": 533481.000000, "NORTHING": 187911.000000, "UPRN": 10008229436.000000, "MI_STYLE": null, "MI_PRINX": 221.000000 }, "geometry": { "type": "Point", "coordinates": [ -0.075232587116543, 51.574271078337858 ] } },
{ "type": "Feature", "properties": { "TYPE": "Secondary School", "NAME": "Skinners' Academy", "HOUSE_NO": null, "ADDRESS1": "Woodberry Grove", "ADDRESS2": null, "TOWN": "London", "POSTCODE": "N4 1SY", "EASTING": 532222.000000, "NORTHING": 187735.000000, "UPRN": 100023183149.000000, "MI_STYLE": null, "MI_PRINX": 222.000000 }, "geometry": { "type": "Point", "coordinates": [ -0.093455620853071, 51.572985897772639 ] } },
{ "type": "Feature", "properties": { "TYPE": "Secondary School", "NAME": "Stoke Newington School and Sixth Form", "HOUSE_NO": null, "ADDRESS1": "Clissold Road", "ADDRESS2": null, "TOWN": "London", "POSTCODE": "N16 9EX", "EASTING": 532927.000000, "NORTHING": 186221.000000, "UPRN": 100021033608.000000, "MI_STYLE": null, "MI_PRINX": 223.000000 }, "geometry": { "type": "Point", "coordinates": [ -0.083860773409808, 51.559214997662487 ] } },
{ "type": "Feature", "properties": { "TYPE": "Secondary School", "NAME": "The Petchey Academy", "HOUSE_NO": null, "ADDRESS1": "Shacklewell Lane", "ADDRESS2": null, "TOWN": "London", "POSTCODE": "E8 2EY", "EASTING": 533929.000000, "NORTHING": 185530.000000, "UPRN": 100023015504.000000, "MI_STYLE": null, "MI_PRINX": 224.000000 }, "geometry": { "type": "Point", "coordinates": [ -0.069678216063685, 51.552768662168354 ] } },
{ "type": "Feature", "properties": { "TYPE": "Secondary School", "NAME": "Yesodey Hatorah Secondary School for Girls", "HOUSE_NO": null, "ADDRESS1": "Egerton Road", "ADDRESS2": null, "TOWN": null, "POSTCODE": "N16 6UB", "EASTING": 533959.000000, "NORTHING": 187840.000000, "UPRN": 100023158852.000000, "MI_STYLE": null, "MI_PRINX": 225.000000 }, "geometry": { "type": "Point", "coordinates": [ -0.068366207119445, 51.573519784210184 ] } },
{ "type": "Feature", "properties": { "TYPE": "Special School", "NAME": "The Garden School", "HOUSE_NO": null, "ADDRESS1": "Wordsworth Road", "ADDRESS2": null, "TOWN": "London", "POSTCODE": "N16 8BZ", "EASTING": 534610.000000, "NORTHING": 185902.000000, "UPRN": 100023005480.000000, "MI_STYLE": null, "MI_PRINX": 226.000000 }, "geometry": { "type": "Point", "coordinates": [ -0.059719640564397, 51.555949558101105 ] } },
{ "type": "Feature", "properties": { "TYPE": "Special School", "NAME": "Ickburgh School", "HOUSE_NO": null, "ADDRESS1": "Ickburgh Road", "ADDRESS2": null, "TOWN": "London", "POSTCODE": "E5 8AD", "EASTING": 534648.000000, "NORTHING": 186397.000000, "UPRN": 100023006336.000000, "MI_STYLE": null, "MI_PRINX": 229.000000 }, "geometry": { "type": "Point", "coordinates": [ -0.058982442094202, 51.560388746561642 ] } },
{ "type": "Feature", "properties": { "TYPE": "Special School", "NAME": "Side by Side Kids School", "HOUSE_NO": "9", "ADDRESS1": "Big Hill", "ADDRESS2": null, "TOWN": "London", "POSTCODE": "E5 9HH", "EASTING": 534909.000000, "NORTHING": 187338.000000, "UPRN": 10008313969.000000, "MI_STYLE": null, "MI_PRINX": 230.000000 }, "geometry": { "type": "Point", "coordinates": [ -0.054858813047346, 51.568782438511967 ] } },
{ "type": "Feature", "properties": { "TYPE": "Special School", "NAME": "Stormont House School", "HOUSE_NO": null, "ADDRESS1": "Downs Park Road", "ADDRESS2": null, "TOWN": "London", "POSTCODE": "E5 8NP", "EASTING": 534385.000000, "NORTHING": 185444.000000, "UPRN": 100023005707.000000, "MI_STYLE": null, "MI_PRINX": 231.000000 }, "geometry": { "type": "Point", "coordinates": [ -0.063137977660318, 51.551887465353317 ] } },
{ "type": "Feature", "properties": { "TYPE": "Nursery", "NAME": "Toucan Day Nursery", "HOUSE_NO": null, "ADDRESS1": "Teale Street", "ADDRESS2": null, "TOWN": "London", "POSTCODE": "E2 8RA", "EASTING": 533505.000000, "NORTHING": 182846.000000, "UPRN": 100021077135.000000, "MI_STYLE": null, "MI_PRINX": 112.000000 }, "geometry": { "type": "Point", "coordinates": [ -0.07680708649514, 51.528749736470267 ] } },
{ "type": "Feature", "properties": { "TYPE": "Nursery", "NAME": "Yetev Lev D’Satmar Nursery", "HOUSE_NO": "2-4", "ADDRESS1": "Chardmore Road", "ADDRESS2": null, "TOWN": "London", "POSTCODE": "N16 6HX", "EASTING": 534281.000000, "NORTHING": 187156.000000, "UPRN": 100021031076.000000, "MI_STYLE": null, "MI_PRINX": 114.000000 }, "geometry": { "type": "Point", "coordinates": [ -0.06398372596288, 51.567296640138707 ] } },
{ "type": "Feature", "properties": { "TYPE": "Playgroup", "NAME": "Acorn Playgroup", "HOUSE_NO": "2", "ADDRESS1": "Narford Road", "ADDRESS2": null, "TOWN": "London", "POSTCODE": "E5 8RD", "EASTING": 534298.000000, "NORTHING": 186458.000000, "UPRN": 100023547202.000000, "MI_STYLE": null, "MI_PRINX": 115.000000 }, "geometry": { "type": "Point", "coordinates": [ -0.064005028329642, 51.561020206419911 ] } },
{ "type": "Feature", "properties": { "TYPE": "Playgroup", "NAME": "Beavers Playgroup", "HOUSE_NO": null, "ADDRESS1": "De Beauvoir Road", "ADDRESS2": null, "TOWN": "London", "POSTCODE": "N1 5SE", "EASTING": 533103.000000, "NORTHING": 183840.000000, "UPRN": 100021036505.000000, "MI_STYLE": null, "MI_PRINX": 116.000000 }, "geometry": { "type": "Point", "coordinates": [ -0.08222343000746, 51.537776965893578 ] } },
{ "type": "Feature", "properties": { "TYPE": "Nursery", "NAME": "Chatterbox Playgroup", "HOUSE_NO": null, "ADDRESS1": "Community Centre", "ADDRESS2": "Samuel Lewis Trust", "TOWN": "London", "POSTCODE": "E8 1PQ", "EASTING": 534129.000000, "NORTHING": 185417.000000, "UPRN": 10008310100.000000, "MI_STYLE": null, "MI_PRINX": 117.000000 }, "geometry": { "type": "Point", "coordinates": [ -0.066838339083178, 51.551705767140611 ] } },
{ "type": "Feature", "properties": { "TYPE": "One O'Clock Club", "NAME": "Clissold One O'clock Club", "HOUSE_NO": null, "ADDRESS1": "Clissold Park", "ADDRESS2": null, "TOWN": "London", "POSTCODE": "N16 9HJ", "EASTING": 532590.000000, "NORTHING": 186370.000000, "UPRN": 100023651851.000000, "MI_STYLE": null, "MI_PRINX": 118.000000 }, "geometry": { "type": "Point", "coordinates": [ -0.088663106526405, 51.560633186366822 ] } },
{ "type": "Feature", "properties": { "TYPE": "Playgroup", "NAME": "Evering Road Playgroup", "HOUSE_NO": null, "ADDRESS1": "Stellman Close", "ADDRESS2": null, "TOWN": "London", "POSTCODE": "E5 8QZ", "EASTING": 534124.000000, "NORTHING": 186075.000000, "UPRN": 100021052764.000000, "MI_STYLE": null, "MI_PRINX": 120.000000 }, "geometry": { "type": "Point", "coordinates": [ -0.066659648321382, 51.55761983636495 ] } },
{ "type": "Feature", "properties": { "TYPE": "Playgroup", "NAME": "Finsbury Park Homeless Families Playgroup\/Créche", "HOUSE_NO": null, "ADDRESS1": "St Johns Church Hall", "ADDRESS2": "Gloucester Drive", "TOWN": "London", "POSTCODE": "N4 2LW", "EASTING": 531769.000000, "NORTHING": 186902.000000, "UPRN": 100021043347.000000, "MI_STYLE": null, "MI_PRINX": 121.000000 }, "geometry": { "type": "Point", "coordinates": [ -0.100300538581368, 51.56560616445875 ] } },
{ "type": "Feature", "properties": { "TYPE": "Playgroup", "NAME": "Frampton Park Pre School", "HOUSE_NO": null, "ADDRESS1": "Frampton Park Road", "ADDRESS2": null, "TOWN": "London", "POSTCODE": "E9 7PQ", "EASTING": 535172.000000, "NORTHING": 184309.000000, "UPRN": 100023024710.000000, "MI_STYLE": null, "MI_PRINX": 122.000000 }, "geometry": { "type": "Point", "coordinates": [ -0.052229642364585, 51.541500355030905 ] } },
{ "type": "Feature", "properties": { "TYPE": "Playgroup", "NAME": "Get Along Gang Playgroup", "HOUSE_NO": null, "ADDRESS1": "Wally Foster Community Centre", "ADDRESS2": "Homerton Rd", "TOWN": "London", "POSTCODE": "E9 5QB", "EASTING": 536655.000000, "NORTHING": 184781.000000, "UPRN": 10008463070.000000, "MI_STYLE": null, "MI_PRINX": 123.000000 }, "geometry": { "type": "Point", "coordinates": [ -0.034357932661991, 51.550303569651852 ] } },
{ "type": "Feature", "properties": { "TYPE": "Playgroup", "NAME": "Grasshoppers Playgroup", "HOUSE_NO": null, "ADDRESS1": "Sir Thomas Abney School", "ADDRESS2": "Fairholt Road", "TOWN": "London", "POSTCODE": "N16 5ED", "EASTING": 533061.000000, "NORTHING": 187513.000000, "UPRN": 100021026397.000000, "MI_STYLE": null, "MI_PRINX": 124.000000 }, "geometry": { "type": "Point", "coordinates": [ -0.081440271937949, 51.570793760058535 ] } },
{ "type": "Feature", "properties": { "TYPE": "Playgroup", "NAME": "Happitime Ltd Play Group", "HOUSE_NO": "Unit 3 142", "ADDRESS1": "Lea Bridge Road", "ADDRESS2": "Hackney", "TOWN": "London", "POSTCODE": "E5 9RB", "EASTING": 535543.000000, "NORTHING": 186491.000000, "UPRN": 100023546084.000000, "MI_STYLE": null, "MI_PRINX": 125.000000 }, "geometry": { "type": "Point", "coordinates": [ -0.050966728548337, 51.55586749864743 ] } },
{ "type": "Feature", "properties": { "TYPE": "Playgroup", "NAME": "Kingsgate Hall Playgroup", "HOUSE_NO": "37", "ADDRESS1": "Buckingham Road", "ADDRESS2": null, "TOWN": "London", "POSTCODE": "N1 4DB", "EASTING": 533337.000000, "NORTHING": 184648.000000, "UPRN": 10008241541.000000, "MI_STYLE": null, "MI_PRINX": 126.000000 }, "geometry": { "type": "Point", "coordinates": [ -0.078545622610697, 51.544982833876759 ] } },
{ "type": "Feature", "properties": { "TYPE": "Playgroup", "NAME": "Liliputs Playgroup", "HOUSE_NO": null, "ADDRESS1": "Springpark Drive", "ADDRESS2": null, "TOWN": "London", "POSTCODE": "N4 2NP", "EASTING": 532284.000000, "NORTHING": 187265.000000, "UPRN": 100023186276.000000, "MI_STYLE": null, "MI_PRINX": 127.000000 }, "geometry": { "type": "Point", "coordinates": [ -0.092738255568554, 51.568747724079884 ] } },
{ "type": "Feature", "properties": { "TYPE": "Playgroup", "NAME": "Maytime Playgroup", "HOUSE_NO": "101", "ADDRESS1": "Clapton Common", "ADDRESS2": null, "TOWN": "London", "POSTCODE": "E5 9AB", "EASTING": 534010.000000, "NORTHING": 187663.000000, "UPRN": 100023007888.000000, "MI_STYLE": null, "MI_PRINX": 130.000000 }, "geometry": { "type": "Point", "coordinates": [ -0.067698124631794, 51.571917116361483 ] } },
{ "type": "Feature", "properties": { "TYPE": "Playgroup", "NAME": "Mole on the Hill Playgroup", "HOUSE_NO": "110", "ADDRESS1": "Stamford Hill", "ADDRESS2": null, "TOWN": "Hackney", "POSTCODE": "N16 6RZ", "EASTING": 533754.000000, "NORTHING": 187365.000000, "UPRN": 100023157700.000000, "MI_STYLE": null, "MI_PRINX": 132.000000 }, "geometry": { "type": "Point", "coordinates": [ -0.071503172499507, 51.569299904014478 ] } },
{ "type": "Feature", "properties": { "TYPE": "Playgroup", "NAME": "N16 Playgroup", "HOUSE_NO": null, "ADDRESS1": "Stoke Newington Church Street", "ADDRESS2": null, "TOWN": "London", "POSTCODE": "N16 0AS", "EASTING": 533372.000000, "NORTHING": 186549.000000, "UPRN": 10008283834.000000, "MI_STYLE": null, "MI_PRINX": 133.000000 }, "geometry": { "type": "Point", "coordinates": [ -0.077320973018862, 51.562057522241098 ] } },
{ "type": "Feature", "properties": { "TYPE": "Playgroup", "NAME": "Pembury Pre-School", "HOUSE_NO": null, "ADDRESS1": "Pembury Close", "ADDRESS2": "Pembury Road", "TOWN": "London", "POSTCODE": "E5 8JR", "EASTING": 534821.000000, "NORTHING": 185414.000000, "UPRN": 10008244245.000000, "MI_STYLE": null, "MI_PRINX": 134.000000 }, "geometry": { "type": "Point", "coordinates": [ -0.056864871233925, 51.551513945406974 ] } },
{ "type": "Feature", "properties": { "TYPE": "Playgroup", "NAME": "Sandbrook Community Playgroup", "HOUSE_NO": "85", "ADDRESS1": "Sandbrook Road", "ADDRESS2": null, "TOWN": "London", "POSTCODE": "N16 0SL", "EASTING": 533191.000000, "NORTHING": 186266.000000, "UPRN": 100023155803.000000, "MI_STYLE": null, "MI_PRINX": 136.000000 }, "geometry": { "type": "Point", "coordinates": [ -0.080037739267015, 51.559557137657585 ] } },
{ "type": "Feature", "properties": { "TYPE": "Playgroup", "NAME": "Triangle Pre-school Community Playgroup", "HOUSE_NO": null, "ADDRESS1": "Cassland Road", "ADDRESS2": null, "TOWN": "London", "POSTCODE": "E9 5BU", "EASTING": 536074.000000, "NORTHING": 184652.000000, "UPRN": 100023544644.000000, "MI_STYLE": null, "MI_PRINX": 137.000000 }, "geometry": { "type": "Point", "coordinates": [ -0.039098553292555, 51.544366070507955 ] } },
{ "type": "Feature", "properties": { "TYPE": "Playgroup", "NAME": "Webb Estate Playgroup", "HOUSE_NO": null, "ADDRESS1": "Webb Estate", "ADDRESS2": "Clapton Common", "TOWN": "London", "POSTCODE": "E5 9BD", "EASTING": 534344.000000, "NORTHING": 187522.000000, "UPRN": 100023648572.000000, "MI_STYLE": null, "MI_PRINX": 139.000000 }, "geometry": { "type": "Point", "coordinates": [ -0.0629355099189, 51.570570649988483 ] } },
{ "type": "Feature", "properties": { "TYPE": "After School Club", "NAME": "Baden Powell School", "HOUSE_NO": null, "ADDRESS1": "Ferron Road", "ADDRESS2": null, "TOWN": "London", "POSTCODE": "E5 8DN", "EASTING": 534737.000000, "NORTHING": 186089.000000, "UPRN": 100021040735.000000, "MI_STYLE": null, "MI_PRINX": 140.000000 }, "geometry": { "type": "Point", "coordinates": [ -0.057817179301019, 51.557599744373995 ] } },
{ "type": "Feature", "properties": { "TYPE": "After School Club", "NAME": "Benthal Primary School", "HOUSE_NO": null, "ADDRESS1": "Benthal Road", "ADDRESS2": null, "TOWN": "London", "POSTCODE": "N16 7AU", "EASTING": 534224.000000, "NORTHING": 186153.000000, "UPRN": 100021026086.000000, "MI_STYLE": null, "MI_PRINX": 141.000000 }, "geometry": { "type": "Point", "coordinates": [ -0.065188341491963, 51.558297069244965 ] } },
{ "type": "Feature", "properties": { "TYPE": "After School Club", "NAME": "Betty Layward Primary School", "HOUSE_NO": null, "ADDRESS1": "Clissold Road", "ADDRESS2": null, "TOWN": "London", "POSTCODE": "N16 9EX", "EASTING": 532845.000000, "NORTHING": 186102.000000, "UPRN": 100023162888.000000, "MI_STYLE": null, "MI_PRINX": 142.000000 }, "geometry": { "type": "Point", "coordinates": [ -0.085087831056798, 51.558164868705688 ] } },
{ "type": "Feature", "properties": { "TYPE": "After School Club", "NAME": "Brook Community Primary School", "HOUSE_NO": null, "ADDRESS1": "Sigdon Road", "ADDRESS2": null, "TOWN": "London", "POSTCODE": "E8 1AS", "EASTING": 534471.000000, "NORTHING": 185114.000000, "UPRN": 100021072733.000000, "MI_STYLE": null, "MI_PRINX": 143.000000 }, "geometry": { "type": "Point", "coordinates": [ -0.06202431950854, 51.548901574073525 ] } },
{ "type": "Feature", "properties": { "TYPE": "After School Club", "NAME": "De Beauvoir Primary School", "HOUSE_NO": null, "ADDRESS1": "Tottenham Road", "ADDRESS2": null, "TOWN": "London", "POSTCODE": "N1 4BS", "EASTING": 533250.000000, "NORTHING": 184704.000000, "UPRN": 100023133648.000000, "MI_STYLE": null, "MI_PRINX": 144.000000 }, "geometry": { "type": "Point", "coordinates": [ -0.079778330859511, 51.54550654496223 ] } },
{ "type": "Feature", "properties": { "TYPE": "After School Club", "NAME": "Kingsmead Primary School", "HOUSE_NO": null, "ADDRESS1": "Kingsmead Way", "ADDRESS2": null, "TOWN": "London", "POSTCODE": "E9 5PP", "EASTING": 536318.000000, "NORTHING": 185611.000000, "UPRN": 100021048918.000000, "MI_STYLE": null, "MI_PRINX": 146.000000 }, "geometry": { "type": "Point", "coordinates": [ -0.03521078692097, 51.552924867457527 ] } },
{ "type": "Feature", "properties": { "TYPE": "After School Club", "NAME": "London Fields Primary School", "HOUSE_NO": null, "ADDRESS1": "Westgate Street", "ADDRESS2": null, "TOWN": "London", "POSTCODE": "E8 3RL", "EASTING": 534642.000000, "NORTHING": 183844.000000, "UPRN": 100023016453.000000, "MI_STYLE": null, "MI_PRINX": 147.000000 }, "geometry": { "type": "Point", "coordinates": [ -0.060045172183382, 51.537448344757102 ] } },
{ "type": "Feature", "properties": { "TYPE": "After School Club", "NAME": "Morningside Primary School", "HOUSE_NO": null, "ADDRESS1": "Chatham Place", "ADDRESS2": null, "TOWN": "London", "POSTCODE": "E9 6LL", "EASTING": 535253.000000, "NORTHING": 184862.000000, "UPRN": 100023022301.000000, "MI_STYLE": null, "MI_PRINX": 148.000000 }, "geometry": { "type": "Point", "coordinates": [ -0.050850014925367, 51.546450346710955 ] } },
{ "type": "Feature", "properties": { "TYPE": "After School Club", "NAME": "Northwold Primary School", "HOUSE_NO": null, "ADDRESS1": "Northwold Road", "ADDRESS2": null, "TOWN": "London", "POSTCODE": "E5 8RN", "EASTING": 534283.000000, "NORTHING": 186656.000000, "UPRN": 200001851633.000000, "MI_STYLE": null, "MI_PRINX": 149.000000 }, "geometry": { "type": "Point", "coordinates": [ -0.064145807340256, 51.562803079911376 ] } },
{ "type": "Feature", "properties": { "TYPE": "After School Club", "NAME": "Princess May Primary School", "HOUSE_NO": null, "ADDRESS1": "Barretts Grove", "ADDRESS2": null, "TOWN": "London", "POSTCODE": "N16 8DF", "EASTING": 533532.000000, "NORTHING": 185533.000000, "UPRN": 200002797875.000000, "MI_STYLE": null, "MI_PRINX": 150.000000 }, "geometry": { "type": "Point", "coordinates": [ -0.075399695721124, 51.552889628408828 ] } },
{ "type": "Feature", "properties": { "TYPE": "After School Club", "NAME": "Queensbridge Primary School", "HOUSE_NO": null, "ADDRESS1": "Queensbridge Road", "ADDRESS2": null, "TOWN": "London", "POSTCODE": "E8 4ET", "EASTING": 533900.000000, "NORTHING": 184049.000000, "UPRN": 100023016452.000000, "MI_STYLE": null, "MI_PRINX": 151.000000 }, "geometry": { "type": "Point", "coordinates": [ -0.070659290501244, 51.539466788932032 ] } },
{ "type": "Feature", "properties": { "TYPE": "After School Club", "NAME": "St Scholastica's RC Primary School", "HOUSE_NO": null, "ADDRESS1": "Kenninghall Road", "ADDRESS2": null, "TOWN": "London", "POSTCODE": "E5 8BS", "EASTING": 534433.000000, "NORTHING": 186181.000000, "UPRN": 100021050728.000000, "MI_STYLE": null, "MI_PRINX": 152.000000 }, "geometry": { "type": "Point", "coordinates": [ -0.062164580925517, 51.558498885434858 ] } },
{ "type": "Feature", "properties": { "TYPE": "After School Club", "NAME": "Sir Thomas Abney School", "HOUSE_NO": null, "ADDRESS1": "Fairholt Road", "ADDRESS2": null, "TOWN": "London", "POSTCODE": "N16 5ED", "EASTING": 533057.000000, "NORTHING": 187444.000000, "UPRN": 100021026397.000000, "MI_STYLE": null, "MI_PRINX": 153.000000 }, "geometry": { "type": "Point", "coordinates": [ -0.081524042547865, 51.57017464519209 ] } },
{ "type": "Feature", "properties": { "TYPE": "After School Club", "NAME": "Springfield Community Primary", "HOUSE_NO": null, "ADDRESS1": "Castlewood Road", "ADDRESS2": null, "TOWN": "London", "POSTCODE": "N16 6DH", "EASTING": 534185.000000, "NORTHING": 188159.000000, "UPRN": 100021030252.000000, "MI_STYLE": null, "MI_PRINX": 154.000000 }, "geometry": { "type": "Point", "coordinates": [ -0.064985323633262, 51.576332680188592 ] } },
{ "type": "Feature", "properties": { "TYPE": "After School Club", "NAME": "Tyssen Community Primary School", "HOUSE_NO": null, "ADDRESS1": "Oldhill Street", "ADDRESS2": null, "TOWN": "London", "POSTCODE": "N16 6QA", "EASTING": 534111.000000, "NORTHING": 187372.000000, "UPRN": 100023159197.000000, "MI_STYLE": null, "MI_PRINX": 155.000000 }, "geometry": { "type": "Point", "coordinates": [ -0.066352697109758, 51.569278160819962 ] } },
{ "type": "Feature", "properties": { "TYPE": "After School Club", "NAME": "Whitmore School", "HOUSE_NO": null, "ADDRESS1": "Bridport Place", "ADDRESS2": null, "TOWN": "London", "POSTCODE": "N1 5JN", "EASTING": 532825.000000, "NORTHING": 183566.000000, "UPRN": 100023545808.000000, "MI_STYLE": null, "MI_PRINX": 156.000000 }, "geometry": { "type": "Point", "coordinates": [ -0.086332676326114, 51.535380192688599 ] } },
{ "type": "Feature", "properties": { "TYPE": "After School Club", "NAME": "William Patten After School Club", "HOUSE_NO": null, "ADDRESS1": "Stoke Newington Church Street", "ADDRESS2": null, "TOWN": "London", "POSTCODE": "N16 0NX", "EASTING": 533532.000000, "NORTHING": 186544.000000, "UPRN": 100023155595.000000, "MI_STYLE": null, "MI_PRINX": 157.000000 }, "geometry": { "type": "Point", "coordinates": [ -0.075016118453922, 51.56197478104405 ] } },
{ "type": "Feature", "properties": { "TYPE": "Primary School", "NAME": "Baden Powell School", "HOUSE_NO": null, "ADDRESS1": "Ferron Road", "ADDRESS2": null, "TOWN": "London", "POSTCODE": "E5 8DN", "EASTING": 534737.000000, "NORTHING": 186089.000000, "UPRN": 100021040735.000000, "MI_STYLE": null, "MI_PRINX": 158.000000 }, "geometry": { "type": "Point", "coordinates": [ -0.057817179301019, 51.557599744373995 ] } },
{ "type": "Feature", "properties": { "TYPE": "Primary School", "NAME": "Benthal Primary School", "HOUSE_NO": null, "ADDRESS1": "Benthal Road", "ADDRESS2": null, "TOWN": "London", "POSTCODE": "N16 7AU", "EASTING": 534224.000000, "NORTHING": 186153.000000, "UPRN": 100021026086.000000, "MI_STYLE": null, "MI_PRINX": 159.000000 }, "geometry": { "type": "Point", "coordinates": [ -0.065188341491963, 51.558297069244965 ] } },
{ "type": "Feature", "properties": { "TYPE": "Primary School", "NAME": "Berger Primary School", "HOUSE_NO": null, "ADDRESS1": "Anderson Road", "ADDRESS2": null, "TOWN": "London", "POSTCODE": "E9 6HB", "EASTING": 535746.000000, "NORTHING": 184833.000000, "UPRN": 100023020877.000000, "MI_STYLE": null, "MI_PRINX": 160.000000 }, "geometry": { "type": "Point", "coordinates": [ -0.043755796401498, 51.546071464491703 ] } },
{ "type": "Feature", "properties": { "TYPE": "Primary School", "NAME": "Betty Layward Primary School", "HOUSE_NO": null, "ADDRESS1": "Clissold Road", "ADDRESS2": null, "TOWN": "London", "POSTCODE": "N16 9EX", "EASTING": 532836.000000, "NORTHING": 186151.000000, "UPRN": 10008238517.000000, "MI_STYLE": null, "MI_PRINX": 161.000000 }, "geometry": { "type": "Point", "coordinates": [ -0.085199134116218, 51.558607371863339 ] } },
{ "type": "Feature", "properties": { "TYPE": "Primary School", "NAME": "Brook Community Primary School", "HOUSE_NO": null, "ADDRESS1": "Sigdon Road", "ADDRESS2": null, "TOWN": "London", "POSTCODE": "E8 1AS", "EASTING": 534471.000000, "NORTHING": 185114.000000, "UPRN": 100021072733.000000, "MI_STYLE": null, "MI_PRINX": 162.000000 }, "geometry": { "type": "Point", "coordinates": [ -0.06202431950854, 51.548901574073525 ] } },
{ "type": "Feature", "properties": { "TYPE": "Primary School", "NAME": "Burbage School", "HOUSE_NO": null, "ADDRESS1": "Ivy Street", "ADDRESS2": null, "TOWN": "London", "POSTCODE": "N1 5JD", "EASTING": 533192.000000, "NORTHING": 183369.000000, "UPRN": 100023135363.000000, "MI_STYLE": null, "MI_PRINX": 163.000000 }, "geometry": { "type": "Point", "coordinates": [ -0.081118880925605, 51.533523458087977 ] } },
{ "type": "Feature", "properties": { "TYPE": "Primary School", "NAME": "Colvestone Primary School", "HOUSE_NO": null, "ADDRESS1": "Colvestone Crescent", "ADDRESS2": null, "TOWN": "London", "POSTCODE": "E8 2LG", "EASTING": 533640.000000, "NORTHING": 185066.000000, "UPRN": 100023015314.000000, "MI_STYLE": null, "MI_PRINX": 164.000000 }, "geometry": { "type": "Point", "coordinates": [ -0.074020133629533, 51.548667509869993 ] } },
{ "type": "Feature", "properties": { "TYPE": "Primary School", "NAME": "Daubeney Primary School", "HOUSE_NO": null, "ADDRESS1": "Daubeney Road", "ADDRESS2": null, "TOWN": "London", "POSTCODE": "E5 0EG", "EASTING": 536129.000000, "NORTHING": 185620.000000, "UPRN": 100021036411.000000, "MI_STYLE": null, "MI_PRINX": 165.000000 }, "geometry": { "type": "Point", "coordinates": [ -0.03793165113274, 51.553051312522143 ] } }
]
}
